SALE TYPE,SOLD DATE,PROPERTY TYPE,ADDRESS,CITY,STATE OR PROVINCE,ZIP OR POSTAL CODE,PRICE,BEDS,BATHS,LOCATION,SQUARE FEET,LOT SIZE,YEAR BUILT,DAYS ON MARKET,$/SQUARE FEET,HOA/MONTH,STATUS,NEXT OPEN HOUSE START TIME,NEXT OPEN HOUSE END TIME,URL (SEE https://www.redfin.com/buy-a-home/comparative-market-analysis FOR INFO ON PRICING),SOURCE,MLS#,FAVORITE,INTERESTED,LATITUDE,LONGITUDE
"In accordance with local MLS rules, some MLS listings are not included in the download"
MLS Listing,,Vacant Land,179 N Timber Wolf Pl,Eagle,ID,83616,425000,,,Shingle Creek,,17293,,31,,100,Active,,,https://www.redfin.com/ID/Eagle/179-N-Timber-Wolf-Pl-83616/home/196137110,IMLS,98969841,N,Y,43.6978733,-116.3851269
MLS Listing,,Townhouse,4637 W Riva Capri Ct,Meridian,ID,83646,425000,3,2.5,Daphne Square,1540,3049,2023,121,276,100,Active,,,https://www.redfin.com/ID/Meridian/4637-W-Riva-Capri-Ct-83646/home/185349957,IMLS,98961874,N,Y,43.648873,-116.452071
MLS Listing,,Single Family Residential,138 W Radiant Ridge Dr,Meridian,ID,83642,425000,3,2.0,Stapleton,1395,3920,2024,3,305,55,Active,,,https://www.redfin.com/ID/Meridian/138-W-Radiant-Ridge-Dr-83642/home/194181566,IMLS,98971570,N,Y,43.5679555,-116.3961191
MLS Listing,,Single Family Residential,2905 W Elk Stream St,Meridian,ID,83646,425000,3,2.0,Parkwood Meadow,1420,9147,1993,39,299,12,Active,,,https://www.redfin.com/ID/Meridian/2905-W-Elk-Stream-St-83646/home/106753613,IMLS,98969284,N,Y,43.628872,-116.4297995
MLS Listing,,Single Family Residential,7134 W Amity Rd,Boise,ID,83709,425000,3,2.0,Windemere,1332,6969,1990,57,319,15,Active,,,https://www.redfin.com/ID/Boise/7134-W-Amity-Rd-83709/home/106705683,IMLS,98967977,N,Y,43.5612693,-116.2705744
MLS Listing,,Single Family Residential,1623 Thorn Creek Ct,Nampa,ID,83686,425000,4,2.0,Middle Creek Nampa,1923,10454,1996,77,221,33,Active,January-18-2026 01:00 PM,January-18-2026 03:00 PM,https://www.redfin.com/ID/Nampa/1623-Thorn-Creek-Ct-83686/home/117389020,IMLS,98966298,N,Y,43.566752,-116.6014849
MLS Listing,,Vacant Land,5165 N Quinella St,Garden City,ID,83714,425000,,,Quinella Sub,,6098,,1,,,Active,,,https://www.redfin.com/ID/Garden-City/5165-Quinella-Ct-83714/home/106717700,IMLS,98971938,N,Y,43.6485501,-116.2656219
MLS Listing,,Vacant Land,21531 Rabbit Creek Pl,Star,ID,83669,425000,,,Star River Ranch,,17859,,77,,146,Active,,,https://www.redfin.com/ID/Star/21531-Rabbit-Creek-Pl-83669/home/116652623,IMLS,98966287,N,Y,43.6865073,-116.5234598
MLS Listing,,Townhouse,1653 E Horse Creek Ct,Meridian,ID,83642,425000,3,2.0,Wind Walker,1631,5401,2014,11,261,100,Active,,,https://www.redfin.com/ID/Meridian/1653-E-Horse-Creek-Ct-83642/home/106717571,IMLS,98970918,N,Y,43.5794183,-116.3736963
MLS Listing,,Single Family Residential,3340 S Fork Ave,Nampa,ID,83686,425000,3,2.5,River Meadow,2120,8276,2017,8,200,27,Active,,,https://www.redfin.com/ID/Nampa/3340-S-Fork-Ave-83686/home/118224314,IMLS,98971237,N,Y,43.5370019,-116.5187357
MLS Listing,,Single Family Residential,7770 W Bobran St,Boise,ID,83709,425000,2,1.0,Randall Acres S,720,10454,1960,134,590,,Active,,,https://www.redfin.com/ID/Boise/7770-W-Bobran-St-83709/home/106683347,IMLS,98960576,N,Y,43.5958445,-116.2788297
MLS Listing,,Single Family Residential,8697 E Love Ct,Nampa,ID,83687-1060,424999,4,2.0,Sweetwater,1667,6098,2024,136,255,60,Active,,,https://www.redfin.com/ID/Nampa/8697-E-Love-Ct-83687/home/186221359,IMLS,98960222,N,Y,43.6345073,-116.5668786
MLS Listing,,Single Family Residential,1619 Long Pond St,Middleton,ID,83644,424990,3,2.0,Kestrel Estates,1860,10018,2025,28,228,41,Active,,,https://www.redfin.com/ID/Middleton/1619-Long-Pond-St-83644/home/196890227,IMLS,98970090,N,Y,43.749493,-116.584251
MLS Listing,,Single Family Residential,1436 Long Pond St,Middleton,ID,83644,424990,3,2.5,Kestrel Estates,1805,6969,2025,39,235,41,Active,,,https://www.redfin.com/ID/Middleton/1436-Long-Pond-St-83644/home/196890197,IMLS,98969291,N,Y,43.749493,-116.584251
New Construction Plan,,Single Family Residential,The Orchard Plan,Kuna,ID,83634,424990,3,2.0,Kuna,1800,,,41,236,,Active,,,https://www.redfin.com/ID/Kuna/Kuna/The-Orchard/home/199554783,Zillow,381FCDFDB7D8,N,Y,43.4962079,-116.3870071
MLS Listing,,Single Family Residential,2438 W Fallon Lp,Nampa,ID,83651,424990,4,2.0,Clearcreek,1860,7840,2025,4,228,67,Active,,,https://www.redfin.com/ID/Nampa/2438-W-Fallon-Loop-83651/home/200009301,IMLS,98971477,N,Y,43.5733001,-116.6105426
MLS Listing,,Single Family Residential,18218 N Lion Head Ave,Nampa,ID,83687,424990,4,2.0,Magnolia Estates,2025,8276,2025,109,210,73,Active,,,https://www.redfin.com/ID/Nampa/18218-N-Lion-Head-Ave-83687/home/196890923,IMLS,98963175,N,Y,43.637146,-116.5760051
MLS Listing,,Single Family Residential,3397 W Morere Dr,Meridian,ID,83642,424990,3,2.0,Gran Prado,1447,6229,2025,127,294,54,Active,,,https://www.redfin.com/ID/Meridian/3397-W-Morere-Dr-83642/home/194183441,IMLS,98958549,N,Y,43.5541883,-116.4361662
MLS Listing,,Single Family Residential,725 E Badley Ave,Meridian,ID,83642,424990,3,2.0,Sterling Creek,1338,7405,1999,69,318,12,Active,,,https://www.redfin.com/ID/Meridian/725-E-Badley-Ave-83642/home/106677088,IMLS,98967054,N,Y,43.6163839,-116.3839161
MLS Listing,,Single Family Residential,11163 Bluefield Dr,Caldwell,ID,83605,424990,3,2.0,Shadow Glen,1692,8276,2025,29,251,46,Active,,,https://www.redfin.com/ID/Caldwell/11163-Bluefield-Dr-83605/home/199720865,IMLS,98970008,N,Y,43.6511746,-116.616588
MLS Listing,,Single Family Residential,2558 W Fallon Lp,Nampa,ID,83651,424990,3,2.0,Clearcreek,1694,7405,2025,87,251,67,Active,,,https://www.redfin.com/ID/Nampa/2558-W-Fallon-Loop-83651/home/198733498,IMLS,98965339,N,Y,43.5724418,-116.6122886
MLS Listing,,Single Family Residential,3061 S Maple Ranch Way,Nampa,ID,83687,424990,3,2.5,Seven Maples Ranch,1851,4791,2025,53,230,46,Active,,,https://www.redfin.com/ID/Nampa/3061-S-Maple-Ranch-Way-83686/home/196892455,IMLS,98968426,N,Y,43.5400527,-116.5280058
MLS Listing,,Single Family Residential,3453 E Crimson King Dr,Nampa,ID,83686,424990,4,2.0,Seven Maples Ranch,1860,6969,2025,53,228,46,Active,,,https://www.redfin.com/ID/Nampa/3453-E-Crimson-King-Dr-83686/home/196892495,IMLS,98968439,N,Y,43.5376442,-116.5285666
MLS Listing,,Single Family Residential,1608 Sunday River St,Middleton,ID,83644,424990,3,2.0,Kestrel Estates,1694,9583,2025,4,251,41,Active,,,https://www.redfin.com/ID/Middleton/1608-Sunday-River-St-83644/home/196890219,IMLS,98971457,N,Y,43.749493,-116.584251
MLS Listing,,Single Family Residential,3494 E Boxelder Dr,Nampa,ID,83686,424990,3,2.0,Seven Maples Ranch,1694,7405,2025,4,251,46,Active,,,https://www.redfin.com/ID/Nampa/3494-E-Boxelder-Dr-83686/home/196892460,IMLS,98971481,N,Y,43.5409122,-116.5278373
MLS Listing,,Single Family Residential,10813 Rutland St,Caldwell,ID,83605,424990,4,2.5,Valencia Village,2318,3920,2025,46,183,50,Active,,,https://www.redfin.com/ID/Caldwell/10813-Rutland-St-83605/home/199431922,IMLS,98968764,N,Y,43.6561647,-116.6095685
MLS Listing,,Single Family Residential,2921 E Valley Wind St,Kuna,ID,83634,424990,3,2.0,Ledgestone,1694,6795,2025,123,251,50,Active,,,https://www.redfin.com/ID/Kuna/2921-E-Valley-Wind-St-83634/home/197970384,IMLS,98961671,N,Y,43.513319,-116.377535
MLS Listing,,Single Family Residential,17761 N Onaway Ave,Nampa,ID,83687,424990,4,2.0,Bodle Farms,1979,6969,2025,6,215,60,Active,January-17-2026 01:00 PM,January-17-2026 04:00 PM,https://www.redfin.com/ID/Nampa/17761-N-Onaway-Ave-83687/home/194873205,IMLS,98971377,N,Y,43.6304,-116.562725
MLS Listing,,Single Family Residential,17857 N Onaway Ave,Nampa,ID,83687,424990,4,2.5,Bodle Farms,2211,6098,2025,57,192,60,Active,,,https://www.redfin.com/ID/Nampa/17857-N-Onaway-Ave-83687/home/196888724,IMLS,98968032,N,Y,43.630276,-116.56262
MLS Listing,,Single Family Residential,18405 N Sweet William Ave,Nampa,ID,83687,424990,4,2.0,Solano Place,1600,7840,2025,32,266,53,Active,,,https://www.redfin.com/ID/Nampa/18405-N-Sweet-William-Ave-83687/home/196890897,IMLS,98969739,N,Y,43.606514,-116.527359
MLS Listing,,Single Family Residential,1666 Dyer St,Middleton,ID,83644,424990,4,2.0,Waverly Park,2025,8276,2025,28,210,42,Active,,,https://www.redfin.com/ID/Middleton/1666-Dyer-St-83644/home/199737117,IMLS,98970100,N,Y,43.7134863,-116.5893773
MLS Listing,,Single Family Residential,247 N Cranesbill Ave,Kuna,ID,83634,424990,4,2.0,Madrone Heights,2025,5140,2025,130,210,42,Active,,,https://www.redfin.com/ID/Kuna/247-N-Cranesbill-Ave-83634/home/197716681,IMLS,98960901,N,Y,43.490786,-116.439228
MLS Listing,,Single Family Residential,4960 S Amorita Ave,Meridian,ID,83642,424990,3,2.5,Centerville,1630,3441,2025,144,261,58,Active,,,https://www.redfin.com/ID/Meridian/4960-S-Amorita-Ave-83642/home/197358579,IMLS,98959329,N,Y,43.559736,-116.340729
MLS Listing,,Single Family Residential,2518 W Fallon Loop,Nampa,ID,83651,424990,3,2.5,Clearcreek,1851,4791,2025,53,230,67,Active,,,https://www.redfin.com/ID/Nampa/2518-W-Fallon-Loop-83651/home/199290453,IMLS,98968407,N,Y,43.5724367,-116.6114862
New Construction Plan,,Single Family Residential,Cypress Plan,Nampa,ID,83687,424990,3,2.5,Saint Nampa,2412,,,76,176,,Active,,,https://www.redfin.com/ID/Nampa/Saint-Nampa/Cypress/home/194999964,Zillow,47867E042ED1,N,Y,43.62703323364258,-116.6010971069336
New Construction Plan,,Townhouse,Plan 1950 Plan,Eagle,ID,83616,424900,4,2.5,Eagle,1928,,,92,220,,Active,,,https://www.redfin.com/ID/Eagle/Eagle/Plan-1950/home/198627238,Zillow,A8F2875A259E,N,Y,43.6971285,-116.4058901
MLS Listing,,Single Family Residential,7887 W Orbit Dr,Boise,ID,83709,424900,3,2.0,Moon Ridge,1483,9713,2003,75,287,19,Active,January-17-2026 11:00 AM,January-17-2026 02:00 PM,https://www.redfin.com/ID/Boise/7887-W-Orbit-Dr-83709/home/106692815,IMLS,98966080,N,Y,43.5429389,-116.2808561
MLS Listing,,Single Family Residential,35 N Midland Blvd,Nampa,ID,83651,424900,4,2.0,Westview,2216,16117,1963,28,192,,Active,,,https://www.redfin.com/ID/Nampa/35-N-Midland-Blvd-83651/home/116970289,IMLS,98970064,N,Y,43.578551,-116.593448
MLS Listing,,Townhouse,740 S Calhoun Ln,Star,ID,83669-1165,424880,3,3.0,Crystal Springs Estates,1596,3136,2025,32,266,167,Active,,,https://www.redfin.com/ID/Star/740-S-Calhoun-Ln-83669/home/197669530,IMLS,98969789,N,Y,43.6870156,-116.4637898
New Construction Plan,,Single Family Residential,Villa (F) Plan,Star,ID,83669,424880,3,2.5,Star,1617,,,32,263,,Active,,,https://www.redfin.com/ID/Star/Star/Villa-F/home/199657872,Zillow,622FD1F19E18,N,Y,43.687649,-116.463801
New Construction Home,,Single Family Residential,7962 E Antebellum St,Nampa,ID,83687,424502,4,2.0,Nampa,2135,,2025,37,199,,Active,,,https://www.redfin.com/ID/Nampa/7962-E-Antebellum-St-83687/home/196890494,Zillow,0BC335D4CB9B,N,Y,43.606513,-116.527358
MLS Listing,,Single Family Residential,1015 E Logan St,Caldwell,ID,83605,424000,3,1.0,New Home,1480,12632,1918,46,286,,Active,,,https://www.redfin.com/ID/Caldwell/1015-E-Logan-St-83605/home/117089372,IMLS,98968781,N,Y,43.6554893,-116.6859276
MLS Listing,,Vacant Land,2907 W Pleasanton,Boise,ID,83702-4725,424000,,,West Side Sub,,6098,,102,,,Active,,,https://www.redfin.com/ID/Boise/2907-W-Pleasanton-Ave-83702/home/106775779,IMLS,98963883,N,Y,43.6259788,-116.227232
MLS Listing,,Single Family Residential,2104 S Owyhee,Boise,ID,83705,424000,3,2.0,Eagleson Park A,1335,3920,1936,58,318,,Active,January-17-2026 12:00 PM,January-17-2026 02:00 PM,https://www.redfin.com/ID/Boise/2104-S-Owyhee-St-83705/home/106659920,IMLS,98967887,N,Y,43.5835562,-116.2233605
New Construction Plan,,Single Family Residential,Connor Plan,Caldwell,ID,83607,423995,3,2.0,Caldwell,1857,,,545,228,,Active,,,https://www.redfin.com/ID/Caldwell/Caldwell/Connor/home/190763119,Zillow,6A23211C07B8,N,Y,43.59467315673828,-116.68604278564453
MLS Listing,,Single Family Residential,16346 Silver Creek Ave,Caldwell,ID,83607,423900,3,2.5,Kingsview Estates,2299,7840,2007,224,184,29,Active,,,https://www.redfin.com/ID/Caldwell/16346-Silver-Creek-Ave-83607/home/116671348,IMLS,98950182,N,Y,43.6094204,-116.6734766
New Construction Home,,Single Family Residential,717 N Tessa Ave,Meridian,ID,83642,423897,4,2.5,Meridian,1873,,2025,138,226,,Active,,,https://www.redfin.com/ID/Meridian/717-N-Tessa-Ln-83642/home/196047073,Zillow,A5F95FBA3800,N,Y,43.6113288,-116.4523274
MLS Listing,,Single Family Residential,333 W Willow Dale Dr,Kuna,ID,83634,423528,3,3.0,Sera Sole,1666,5575,2025,72,254,55,Active,,,https://www.redfin.com/ID/Kuna/333-W-Willow-Dale-Dr-83634/home/195418642,IMLS,98966696,N,Y,43.483665,-116.4192837
MLS Listing,,Single Family Residential,2839 E Valley Wind St,Kuna,ID,83634,422990,4,2.0,Ledgestone,1860,5488,2025,140,227,50,Active,,,https://www.redfin.com/ID/Kuna/2839-E-Valley-Wind-St-83634/home/197547303,IMLS,98959910,N,Y,43.513296,-116.378464
MLS Listing,,Single Family Residential,3005 S Maple Ranch Way,Nampa,ID,83687,422990,3,2.5,Seven Maples Ranch,1851,4791,2025,17,229,46,Active,,,https://www.redfin.com/ID/Nampa/3005-S-Maple-Ranch-Way-83686/home/196892451,IMLS,98970581,N,Y,43.5404582,-116.5276461
MLS Listing,,Single Family Residential,5526 S Donaway Ave,Meridian,ID,83642,422990,3,2.0,Gran Prado,1694,6664,2025,140,250,54,Active,,,https://www.redfin.com/ID/Meridian/5526-S-Donaway-Ave-83642/home/194183430,IMLS,98959908,N,Y,43.5546719,-116.434248
MLS Listing,,Single Family Residential,9313 W Blue Lace St,Nampa,ID,83687,422990,4,2.0,Solano Place,2025,6098,2025,64,209,53,Active,,,https://www.redfin.com/ID/Nampa/9313-W-Blue-Lace-St-83687/home/196890849,IMLS,98967533,N,Y,43.606514,-116.527359
MLS Listing,,Single Family Residential,2994 E Mossy Creek Dr,Kuna,ID,83634,422990,3,2.0,Ledgestone,1694,5488,2025,32,250,50,Active,,,https://www.redfin.com/ID/Kuna/2994-E-Mossy-Creek-Dr-83634/home/199646785,IMLS,98969755,N,Y,43.514422,-116.376758
MLS Listing,,Single Family Residential,4195 E Woodmurra St,Meridian,ID,83642,422990,3,2.5,Centerville,1650,3441,2025,158,256,58,Active,,,https://www.redfin.com/ID/Meridian/4195-E-Woodmurra-St-83642/home/196974042,IMLS,98957768,N,Y,43.5604867,-116.3419833
New Construction Plan,,Single Family Residential,The Snowbrush Plan,Caldwell,ID,83605,422990,4,2.0,Caldwell,2046,,,360,207,,Active,,,https://www.redfin.com/ID/Caldwell/Caldwell/The-Snowbrush/home/188411035,Zillow,658EB2539768,N,Y,43.650871,-116.6216968
MLS Listing,,Townhouse,1722 N Timathy Ln Unit 32/1,Boise,ID,83713,422400,4,3.5,Forester,1909,1001,2025,225,221,135,Active,,,https://www.redfin.com/ID/Boise/1722-N-Timathy-Ln-83713/unit-32-1/home/195999862,IMLS,98949852,N,Y,43.620758,-116.323817
New Construction Plan,,Single Family Residential,Plan 1667 Plan,Nampa,ID,83687,422000,4,2.0,Nampa,1667,,,491,253,,Active,,,https://www.redfin.com/ID/Nampa/Nampa/Plan-1667/home/192520866,Zillow,A05B9095A4BD,N,Y,43.634887,-116.565543
MLS Listing,,Single Family Residential,18398 N Sparkleberry Ave,Nampa,ID,83687,422000,4,2.0,Sweetwater Glen,1667,7405,2026,40,253,77,Active,,,https://www.redfin.com/ID/Nampa/18398-N-Sparkleberry-Ave-83687/home/196891014,IMLS,98969278,N,Y,43.606513,-116.527358
MLS Listing,,Single Family Residential,349 N Madrone Ave,Kuna,ID,83634,421990,4,2.0,Madrone Heights,1860,4965,2025,46,227,42,Active,,,https://www.redfin.com/ID/Kuna/349-N-Madrone-Ave-83634/home/199431969,IMLS,98968767,N,Y,43.491484,-116.441123
New Construction Plan,,Single Family Residential,Birch Plan,Middleton,ID,83644,421990,3,2.0,Middleton,1620,,,78,260,,Active,,,https://www.redfin.com/ID/Middleton/Middleton/Birch/home/198820992,Zillow,2C8572179700,N,Y,43.728240966796875,-116.61921691894531
PAST SALE,,Single Family Residential,TBD N Onaway Ave,Nampa,ID,83687,,,,,,,,,,,Off Market,,,https://www.redfin.com/ID/Nampa/TBD-N-Onaway-Ave-83687/home/195127815,IMLS,,N,Y,43.6300478,-116.5624396
MLS Listing,,Single Family Residential,1100 N Peakhurt Ave,Kuna,ID,83634,421990,3,2.0,Ashton Estates,1408,5009,2026,26,300,29,Active,,,https://www.redfin.com/ID/Kuna/1100-N-Peakhurt-Ave-83634/home/199742601,IMLS,98970193,N,Y,43.498363,-116.3849651
New Construction Plan,,Single Family Residential,Brooke Plan,Nampa,ID,83687,420990,3,2.0,Nampa,2286,,,294,184,,Active,,,https://www.redfin.com/ID/Nampa/Nampa/Brooke/home/195178450,Zillow,F0CA231DAC0D,N,Y,43.62703323364258,-116.6010971069336
MLS Listing,,Single Family Residential,18390 N Sweet William Ave,Nampa,ID,83687,420990,4,2.0,Solano Place,1860,7840,2025,4,226,53,Active,,,https://www.redfin.com/ID/Nampa/18390-N-Sweet-William-Ave-83687/home/196890885,IMLS,98971460,N,Y,43.606514,-116.527359
MLS Listing,,Single Family Residential,311 N Cranesbill Ave,Kuna,ID,83634,420990,4,2.0,Madrone Heights,1860,5140,2025,46,226,42,Active,,,https://www.redfin.com/ID/Kuna/311-N-Cranesbill-Ave-83634/home/199431966,IMLS,98968766,N,Y,43.491213,-116.439228
New Construction Plan,,Single Family Residential,Amethyst Plan,Caldwell,ID,83687,420990,3,2.5,Caldwell,2270,,,151,185,,Active,,,https://www.redfin.com/ID/Caldwell/Caldwell/Amethyst/home/188390192,Zillow,F612777A5233,N,Y,43.655464,-116.608189
MLS Listing,,Single Family Residential,7335 S Bungalow Ave,Meridian,ID,83642,420990,3,2.5,Whisper Meadows,1650,5749,2025,21,255,42,Active,,,https://www.redfin.com/ID/Meridian/7335-S-Bungalow-Ave-83642/home/199792565,IMLS,98970354,N,Y,43.538074,-116.415807
MLS Listing,,Single Family Residential,7439 S Menzingers Ave,Meridian,ID,83642,420990,3,2.0,Whisper Meadows,1694,5749,2025,64,249,42,Active,,,https://www.redfin.com/ID/Meridian/7439-S-Menzingers-Ave-83642/home/199067219,IMLS,98967492,N,Y,43.537258,-116.414739
MLS Listing,,Single Family Residential,3768 E Jamestown Dr,Nampa,ID,83686,420990,4,2.0,New York Landing,1860,8712,2025,56,226,58,Active,,,https://www.redfin.com/ID/Nampa/3768-E-Jamestown-Dr-83686/home/196888068,IMLS,98968163,N,Y,43.500385,-116.612158
New Construction Plan,,Single Family Residential,Plan 2326 Plan,Nampa,ID,83687,420990,4,2.0,Nampa,2326,,,270,181,,Active,,,https://www.redfin.com/ID/Nampa/Nampa/Plan-2326/home/195474629,Zillow,5EBB69A42B2B,N,Y,43.554183,-116.5140599
New Construction Plan,,Single Family Residential,Hudson Plan,Meridian,ID,83646,420990,2,2.0,Meridian,1424,,,311,296,,Active,,,https://www.redfin.com/ID/Meridian/Meridian/Hudson/home/195000031,Zillow,10699FF4748D,N,Y,43.6369086,-116.3769345
MLS Listing,,Single Family Residential,18423 N Sparkleberry Ave,Nampa,ID,83687,420800,3,2.0,Sweetwater Glen,1474,6534,2026,40,285,77,Active,,,https://www.redfin.com/ID/Nampa/18423-N-Sparkleberry-Ave-83687/home/196891022,IMLS,98969277,N,Y,43.606513,-116.527358
MLS Listing,,Single Family Residential,7667 E Westing House St,Nampa,ID,83687,420724,3,2.5,Franklin Village North,1700,6054,2025,158,247,46,Active,,,https://www.redfin.com/ID/Nampa/7667-E-Westing-House-ST-83687/home/196994405,IMLS,98957839,N,Y,43.62285232543945,-116.54685974121094
MLS Listing,,Single Family Residential,6091 S Lowland View Way,Boise,ID,83709,420000,3,2.0,Sequoia Grove,1424,8276,2004,91,295,29,Active,,,https://www.redfin.com/ID/Boise/6091-S-Lowland-View-Way-83709/home/106762491,IMLS,98965079,N,Y,43.5476882,-116.3277473
MLS Listing,,Single Family Residential,218 N 19th St,Boise,ID,83702,420000,2,1.0,Mccartys Sub,751,1742,1910,2,559,,Active,,,https://www.redfin.com/ID/Boise/218-N-19th-St-83702/home/106712358,IMLS,98971714,N,Y,43.623474,-116.2149151
MLS Listing,,Townhouse,11067 W Shelborne St,Boise,ID,83709,420000,3,2.0,Hazelwood Twnhs,1438,3049,2021,30,292,78,Active,,,https://www.redfin.com/ID/Boise/11067-W-Shelborne-St-83709/home/181150091,IMLS,98969944,N,Y,43.545598,-116.320104
MLS Listing,,Single Family Residential,11389 W Tiekel River St,Nampa,ID,83686,419999,3,2.0,Copper River Basin - Nampa,1694,7840,2022,8,248,31,Active,,,https://www.redfin.com/ID/Nampa/11389-W-Tiekel-River-St-83686/home/176204307,IMLS,98971117,N,Y,43.5631373,-116.6205565
MLS Listing,,Single Family Residential,8490 W Millcreek Ct,Star,ID,83669,419995,3,2.0,Heirloom Ridge,1558,5314,2026,88,270,75,Active,,,https://www.redfin.com/ID/Star/8490-W-Millcreek-Dr-83669/home/198715658,IMLS,98965203,N,Y,43.7012832,-116.47849
MLS Listing,,Single Family Residential,7265 S Menzingers Ave,Meridian,ID,83642,419990,3,2.0,Whisper Meadows,1699,5706,2025,51,247,42,Active,,,https://www.redfin.com/ID/Meridian/7265-S-Menzingers-Ave-83642/home/199289941,IMLS,98968592,N,Y,43.538619,-116.414748
MLS Listing,,Single Family Residential,3292 E Fitz Roy Ct,Kuna,ID,83634,419990,3,2.0,Bellaro Springs,1408,4617,2026,33,298,67,Active,,,https://www.redfin.com/ID/Kuna/3292-E-Fitz-Roy-St-83634/home/199554785,IMLS,98969714,N,Y,43.5167179,-116.3814858
MLS Listing,,Single Family Residential,4988 S Amorita Ave,Meridian,ID,83642,419990,3,2.5,Centerville,1650,3441,2025,151,255,58,Active,,,https://www.redfin.com/ID/Meridian/4988-S-Amorita-Ave-83642/home/197197548,IMLS,98958545,N,Y,43.559527,-116.340733
MLS Listing,,Single Family Residential,9038 W Camellia St,Nampa,ID,83687,419990,4,2.0,Magnolia Estates,1860,7405,2025,56,226,73,Active,,,https://www.redfin.com/ID/Nampa/9038-W-Camellia-St-83687/home/196890941,IMLS,98968152,N,Y,43.6362417,-116.5743344
MLS Listing,,Single Family Residential,3423 E Red Maple Ct,Nampa,ID,83686,419990,3,2.0,Seven Maples Ranch,1699,6534,2025,64,247,46,Active,,,https://www.redfin.com/ID/Nampa/3423-E-Red-Maple-Ct-83686/home/196892491,IMLS,98967474,N,Y,43.5384146,-116.5289626
MLS Listing,,Single Family Residential,18404 N Sweet William Ave,Nampa,ID,83687,419990,4,2.5,Solano Place,1893,7840,2025,17,222,53,Active,,,https://www.redfin.com/ID/Nampa/18404-N-Sweet-William-Ave-83687/home/196890886,IMLS,98970583,N,Y,43.606514,-116.527359
New Construction Plan,,Single Family Residential,Plan 1961 Modeled Plan,Meridian,ID,83642,419990,3,2.5,Meridian,1961,,,800,214,,Active,,,https://www.redfin.com/ID/Meridian/Meridian/Plan-1961-Modeled/home/187259905,Zillow,E6587CA014A9,N,Y,43.568215,-116.402303
New Construction Plan,,Single Family Residential,Plan 2221 Modeled Plan,Nampa,ID,83687,419990,3,2.5,Nampa,2221,,,269,189,,Active,,,https://www.redfin.com/ID/Nampa/Nampa/Plan-2221-Modeled/home/194972864,Zillow,4DB93599CADE,N,Y,43.554183,-116.5140599
MLS Listing,,Single Family Residential,18460 N Sweet William Ave,Nampa,ID,83687,419990,3,2.0,Solano Place,1694,8276,2025,28,248,53,Active,,,https://www.redfin.com/ID/Nampa/18460-N-Sweet-William-Ave-83687/home/196890890,IMLS,98970092,N,Y,43.606514,-116.527359
MLS Listing,,Single Family Residential,2255 E Misty Falls St,Kuna,ID,83634,419990,3,2.0,Ashton Estates,1408,5009,2026,28,298,29,Active,,,https://www.redfin.com/ID/Kuna/2255-E-Misty-Falls-St-83634/home/199582557,IMLS,98970132,N,Y,43.4981225,-116.3857755
MLS Listing,,Single Family Residential,9081 W Violet St,Nampa,ID,83687,419990,4,2.5,Magnolia Estates,1893,6969,2025,53,222,73,Active,,,https://www.redfin.com/ID/Nampa/9081-W-Violet-St-83687/home/196890931,IMLS,98968359,N,Y,43.6365018,-116.5750782
MLS Listing,,Single Family Residential,TBD W Audrey Acres Dr Unit Orchard Lot 8 Block 2,Nampa,ID,83686,419990,3,2.0,Audrey Acres,1800,10759,2026,61,233,55,Active,,,https://www.redfin.com/ID/Nampa/TBD-W-Brookwood-Ct-83686/unit-Orchard-Lot-8-Block-2/home/199675389,IMLS,98967741,N,Y,43.5584924,-116.5908228
New Construction Plan,,Single Family Residential,The Pacific Plan,Middleton,ID,83644,419990,3,2.0,Middleton,1805,,,8,233,,Active,,,https://www.redfin.com/ID/Middleton/Middleton/The-Pacific/home/199981935,Zillow,4884B4DAAE35,N,Y,43.729339599609375,-116.63092803955078
MLS Listing,,Single Family Residential,284 N Cranesbill Ave,Kuna,ID,83634,419990,4,2.0,Madrone Heights,2025,5662,2025,130,207,42,Active,,,https://www.redfin.com/ID/Kuna/284-N-Cranesbill-Ave-83634/home/197716493,IMLS,98960899,N,Y,43.491059,-116.438996
MLS Listing,,Single Family Residential,3040 N Arroyo Vista Way,Kuna,ID,83634,419990,3,2.0,Arroyo Vista,1694,5619,2025,116,248,58,Active,,,https://www.redfin.com/ID/Kuna/3040-N-Arroyo-Vista-Way-83634/home/197671264,IMLS,98962412,N,Y,43.516392,-116.448819
New Construction Plan,,Single Family Residential,Plan 2221 Plan,Kuna,ID,83634,419990,3,2.5,Kuna,2221,,,51,189,,Active,,,https://www.redfin.com/ID/Kuna/Kuna/Plan-2221/home/199385349,Zillow,E5E365AC42BC,N,Y,43.485227,-116.403263
MLS Listing,,Single Family Residential,7704 E Westing House St,Nampa,ID,83687,419990,3,2.0,Franklin Village North,2009,5967,2025,162,209,46,Active,,,https://www.redfin.com/ID/Nampa/7704-E-Westing-House-ST-83687/home/196914743,IMLS,98957439,N,Y,43.62312316894531,-116.54791259765625
New Construction Plan,,Single Family Residential,The Talent Plan,Nampa,ID,83686,419990,3,2.5,Nampa,2250,,,30,187,,Active,,,https://www.redfin.com/ID/Nampa/Nampa/The-Talent/home/199687921,Zillow,ADC8FA92B48A,N,Y,43.55865478515625,-116.59078216552734
MLS Listing,,Single Family Residential,9039 W Violet St,Nampa,ID,83687,419990,4,2.0,Magnolia Estates,1860,7405,2025,53,226,73,Active,,,https://www.redfin.com/ID/Nampa/9039-W-Violet-St-83687/home/196890927,IMLS,98968358,N,Y,43.6365455,-116.5743384
MLS Listing,,Single Family Residential,3361 W Morere Dr,Meridian,ID,83642,419990,3,2.0,Gran Prado,1694,5270,2025,145,248,54,Active,,,https://www.redfin.com/ID/Meridian/3361-W-Morere-Dr-83642/home/194183439,IMLS,98958547,N,Y,43.5541879,-116.4357317
MLS Listing,,Single Family Residential,9079 W Camellia St,Nampa,ID,83687,419990,4,2.0,Magnolia Estates,1860,6969,2025,64,226,73,Active,,,https://www.redfin.com/ID/Nampa/9079-W-Camellia-St-83687/home/196890954,IMLS,98967537,N,Y,43.6357436,-116.5749852
New Construction Plan,,Single Family Residential,Garnet Plan,Mountain Home,ID,83647,419990,4,2.5,Mountain Home,2807,,,71,150,,Active,,,https://www.redfin.com/ID/Mountain-Home/Mountain-Home/Garnet/home/194226101,Zillow,94C26A279E47,N,Y,43.114776611328125,-115.69271087646484
MLS Listing,,Single Family Residential,661 N Scotney Ave,Meridian,ID,83646,419900,3,2.0,Chesterfield,1415,4791,2016,44,297,29,Active,,,https://www.redfin.com/ID/Meridian/661-N-Scotney-Ave-83642/home/109559082,IMLS,98968970,N,Y,43.6106669,-116.4440285
MLS Listing,,Townhouse,1981 N Interlachen,Meridian,ID,83646,419900,3,2.0,Cherry Lane Vil,1339,5619,1990,51,314,,Active,,,https://www.redfin.com/ID/Meridian/1981-N-Interlachen-Way-83646/home/106796080,IMLS,98968611,N,Y,43.6230546,-116.4444046
MLS Listing,,Single Family Residential,8237 W Falling Star St,Boise,ID,83709,419900,3,2.0,Moon Ridge,1350,6403,2000,7,311,19,Active,,,https://www.redfin.com/ID/Boise/8237-W-Falling-Star-St-83709/home/106674575,IMLS,98971249,N,Y,43.546333,-116.2845822
MLS Listing,,Townhouse,3367 NW 15th Ave,Meridian,ID,83646,419900,3,2.0,Edington,1346,3920,2023,2,312,112,Active,,,https://www.redfin.com/ID/Meridian/3367-NW-15th-Ave-83646/home/186477189,IMLS,98971660,N,Y,43.635256,-116.413255
MLS Listing,,Townhouse,336 S Golden Eagle Ln,Eagle,ID,83616,419900,2,2.0,Pacific Heights,1257,3049,2004,136,334,120,Active,,,https://www.redfin.com/ID/Eagle/336-S-Golden-Eagle-Ln-83616/home/106766728,IMLS,98960203,N,Y,43.691361,-116.339998
New Construction Plan,,Single Family Residential,Muros Plan,Eagle,ID,83616,419900,2,2.0,Eagle,1345,,,6,312,,Active,,,https://www.redfin.com/ID/Eagle/Eagle/Muros/home/199994310,Zillow,9A06243D9062,N,Y,43.7510462,-116.425882
MLS Listing,,Single Family Residential,3860 N Elgin,Boise,ID,83713,419900,3,2.0,Elgin Sub,1254,13895,1977,97,335,,Active,,,https://www.redfin.com/ID/Boise/3860-N-Elgin-Way-83713/home/106791050,IMLS,98964491,N,Y,43.6403262,-116.3183816
MLS Listing,,Single Family Residential,461 S Jake Ave,Kuna,ID,83634,419552,3,2.0,Sera Sole,1620,5880,2025,55,259,55,Active,,,https://www.redfin.com/ID/Kuna/461-S-Jake-Ave-83634/home/196554693,IMLS,98968278,N,Y,43.4817926,-116.4185061
MLS Listing,,Condo/Co-op,3651 S Gekeler Ln #96,Boise,ID,83706,419000,3,2.0,Tomlinson Condo,1748,,1989,43,240,469,Active,January-17-2026 01:00 PM,January-17-2026 03:00 PM,https://www.redfin.com/ID/Boise/3651-S-Gekeler-Ln-83706/unit-96/home/106652561,IMLS,98969067,N,Y,43.5696142,-116.1831529
MLS Listing,,Single Family Residential,2123 E Harbour Grove Dr,Nampa,ID,83686,419000,3,2.0,The Islands,1436,7405,2001,7,292,28,Active,January-18-2026 02:00 PM,January-18-2026 04:00 PM,https://www.redfin.com/ID/Nampa/2123-E-Harbour-Grove-Dr-83686/home/117461687,IMLS,98971351,N,Y,43.5416633,-116.5446209
MLS Listing,,Single Family Residential,1726 W Unforgettable St,Meridian,ID,83642,418990,3,2.0,Whisper Meadows,1699,5967,2025,53,247,42,Active,,,https://www.redfin.com/ID/Meridian/1726-W-Unforgettable-St-83642/home/199289796,IMLS,98968393,N,Y,43.5390157,-116.4153412
MLS Listing,,Single Family Residential,7384 S Menzingers Ave,Meridian,ID,83642,418990,3,2.0,Whisper Meadows,1699,6011,2025,64,247,42,Active,,,https://www.redfin.com/ID/Meridian/7384-S-Menzingers-Ave-83642/home/199067220,IMLS,98967491,N,Y,43.537586,-116.414508
New Construction Home,,Single Family Residential,7797 E Myrtle Beach Dr,Nampa,ID,83687,418339,3,2.5,Nampa,2065,,2025,91,203,,Active,,,https://www.redfin.com/ID/Nampa/7797-E-Myrtle-Beach-DR-83687/home/198655461,Zillow,D6D7357BC7F5,N,Y,43.65250015258789,-116.5495376586914
MLS Listing,,Single Family Residential,18232 N Lion Head Ave,Nampa,ID,83687,417990,4,2.0,Magnolia Estates,1860,9583,2025,109,225,73,Active,,,https://www.redfin.com/ID/Nampa/18232-N-Lion-Head-Ave-83687/home/196890922,IMLS,98963174,N,Y,43.6373006,-116.5760241
MLS Listing,,Single Family Residential,2122 W Penstemon St,Kuna,ID,83634,417990,3,2.0,Madrone Heights,1694,5314,2025,101,247,42,Active,,,https://www.redfin.com/ID/Kuna/2122-W-Penstemon-St-83634/home/198505632,IMLS,98964016,N,Y,43.491748,-116.440016
New Construction Plan,,Single Family Residential,The Orchard Plan,Nampa,ID,83686,417990,3,2.0,Nampa,1800,,,672,232,,Active,,,https://www.redfin.com/ID/Nampa/Nampa/The-Orchard/home/187464113,Zillow,C3CB1FD03D32,N,Y,43.531583,-116.512645
New Construction Plan,,Single Family Residential,Cypress Plan,Caldwell,ID,83687,417990,3,2.5,Nampa,2412,,,238,173,,Active,,,https://www.redfin.com/ID/Caldwell/Nampa/Cypress/home/194618755,Zillow,6AC4CBF519E9,N,Y,43.6556165,-116.6084959
New Construction Plan,,Single Family Residential,Plan 1667 Plan,Middleton,ID,83644,417900,4,2.0,Middleton,1667,,,130,251,,Active,,,https://www.redfin.com/ID/Middleton/Middleton/Plan-1667/home/197745170,Zillow,613EAB44B5D2,N,Y,43.702999114990234,-116.63829803466797
New Construction Plan,,Single Family Residential,Plan 1667 Plan,Kuna,ID,83634,417850,4,2.0,Kuna,1667,,,16,251,,Active,,,https://www.redfin.com/ID/Kuna/Kuna/Plan-1667/home/199889834,Zillow,674ECFA8A183,N,Y,43.516876,-116.446593
New Construction Plan,,Single Family Residential,Brookfield Plan,Middleton,ID,83644,416990,3,2.0,Middleton,1888,,,699,221,,Active,,,https://www.redfin.com/ID/Middleton/Middleton/Brookfield/home/188379167,Zillow,7F63043173D8,N,Y,43.7142119,-116.5905361
New Construction Plan,,Single Family Residential,Cypress Plan,S2n1hz Caldwell,ID,83607,416990,3,2.5,Caldwell,2412,,,116,173,,Active,,,https://www.redfin.com/ID/S2n1hz-Caldwell/Caldwell/Cypress/home/198122089,Zillow,FFDA82708E0C,N,Y,43.6325909,-116.673044
New Construction Home,,Single Family Residential,4552 E Vera Cruz St,Nampa,ID,83687,416966,4,2.5,Nampa,2328,,2025,100,179,,Active,,,https://www.redfin.com/ID/Nampa/4552-E-Vera-Cruz-St-83687/home/196889518,Zillow,29EDB737DF2B,N,Y,43.606513,-116.527358
New Construction Home,,Single Family Residential,7869 E Myrtle Beach Dr,Nampa,ID,83687,416346,3,2.5,Nampa,2065,,2025,100,202,,Active,,,https://www.redfin.com/ID/Nampa/7869-E-Myrtle-Beach-DR-83687/home/198508486,Zillow,0CC25CF0421D,N,Y,43.65253448486328,-116.55052947998047
MLS Listing,,Single Family Residential,7869 E Hilton Head St,Nampa,ID,83687,416346,3,2.5,Cherry Grove,2070,6969,2025,56,201,54,Active,,,https://www.redfin.com/ID/Nampa/7869-E-Hilton-Head-St-83687/home/199239135,IMLS,98968083,N,Y,43.6554848,-116.5511908
MLS Listing,,Single Family Residential,3770 E Syracuse St,Nampa,ID,83686,415990,4,2.0,New York Landing,1860,6098,2025,53,224,58,Active,,,https://www.redfin.com/ID/Nampa/3770-E-Syracuse-St-83686/home/196888090,IMLS,98968417,N,Y,43.52773,-116.523029
MLS Listing,,Single Family Residential,1650 Dyer St,Middleton,ID,83644,415990,3,2.0,Waverly Park,1694,8276,2025,53,246,42,Active,,,https://www.redfin.com/ID/Middleton/1650-Dyer-St-83644/home/199289057,IMLS,98968371,N,Y,43.7134872,-116.5899448
MLS Listing,,Single Family Residential,583 E Ronda St,Kuna,ID,83634-4857,415990,4,2.0,Saranda,2026,6534,2019,24,205,89,Active,,,https://www.redfin.com/ID/Kuna/583-E-Ronda-St-83634/home/170284539,IMLS,98970297,N,Y,43.5158927,-116.4065534
MLS Listing,,Townhouse,12531 W Callisto Ln,Star,ID,83669,415990,3,2.5,Cranefield,1946,2221,2026,2,214,135,Active,,,https://www.redfin.com/ID/Star/12531-W-Callisto-Ln-83669/home/194180124,IMLS,98971701,N,Y,43.690705,-116.509862
New Construction Home,,Single Family Residential,5573 E Lekeitio Village Dr,Nampa,ID,83687,415990,3,2.0,Nampa,1408,,2025,81,295,,Active,,,https://www.redfin.com/ID/Nampa/5573-E-Lekeitio-Village-Dr-83687/home/196888496,Zillow,7E35B436A6F3,N,Y,43.625483,-116.506589
MLS Listing,,Single Family Residential,346 N Madrone Ave,Kuna,ID,83634,415990,3,2.0,Madrone Heights,1694,4965,2025,76,246,42,Active,,,https://www.redfin.com/ID/Kuna/346-N-Madrone-Ave-83634/home/198833543,IMLS,98966411,N,Y,43.491493,-116.440875
MLS Listing,,Single Family Residential,5010 S Lava Springs Loop,Nampa,ID,83686,415000,3,2.0,Lava Springs,1540,5662,2018,91,269,46,Active,,,https://www.redfin.com/ID/Nampa/5010-S-Lava-Springs-Loop-83686/home/118225655,IMLS,98965046,N,Y,43.5315054,-116.5378679
MLS Listing,,Single Family Residential,2189 W Gelding St,Middleton,ID,83644,415000,3,2.0,Meadows at West Highlands,1570,6795,2023,9,264,63,Active,January-18-2026 01:00 PM,January-18-2026 04:00 PM,https://www.redfin.com/ID/Middleton/2189-W-Gelding-St-83644/home/186221468,IMLS,98971107,N,Y,43.7190977,-116.641667
MLS Listing,,Townhouse,880 N Bell Ln,Boise,ID,83703,415000,2,2.0,MochaS Townhou,1212,5227,1993,28,342,150,Active,,,https://www.redfin.com/ID/Boise/880-N-Bell-Ln-83703/home/106781491,IMLS,98970113,N,Y,43.6396404,-116.2402554
MLS Listing,,Townhouse,1043 N Clithero Dr,Boise,ID,83703,415000,3,2.5,Clithero Sub,1788,3179,2008,34,232,,Active,,,https://www.redfin.com/ID/Boise/1043-N-Clithero-Dr-83703/home/106678225,IMLS,98969665,N,Y,43.636465,-116.233231
MLS Listing,,Single Family Residential,2440 S Royal Meadows Dr,Nampa,ID,83686,415000,3,2.5,Royal Meadows,1519,11325,2002,43,273,14,Active,,,https://www.redfin.com/ID/Nampa/2440-S-Royal-Meadows-Dr-83686/home/116896259,IMLS,98969103,N,Y,43.5447774,-116.5232747
MLS Listing,,Single Family Residential,502 Crosspoint Ave,Nampa,ID,83686,415000,3,2.0,Morning Sun (Nampa),1465,8276,2000,14,283,13,Active,,,https://www.redfin.com/ID/Nampa/502-Crosspoint-Ave-83686/home/116696410,IMLS,98970689,N,Y,43.544405,-116.5797469
MLS Listing,,Single Family Residential,2617 N Leann Way,Meridian,ID,83646,415000,3,2.0,Fieldstone,1330,11325,1996,1,312,15,Active,,,https://www.redfin.com/ID/Meridian/2617-N-Leann-Way-83646/home/106795085,IMLS,98971877,N,Y,43.628602,-116.4254753
MLS Listing,,Single Family Residential,1845 S Rand St,Boise,ID,83709,415000,3,1.0,Blasers,1056,9539,1956,2,393,,Active,January-16-2026 01:30 PM,January-16-2026 05:30 PM,https://www.redfin.com/ID/Boise/1845-S-Rand-St-83709/home/106790457,IMLS,98971691,N,Y,43.5865018,-116.257908
MLS Listing,,Single Family Residential,5408 Juliet Rose Ave,Caldwell,ID,83607,414995,3,2.5,Pradera,2128,8624,2026,6,195,67,Active,,,https://www.redfin.com/ID/Caldwell/5408-Juliet-Rose-Ave-83607/home/191855975,IMLS,98971407,N,Y,43.6212288,-116.6940332
MLS Listing,,Single Family Residential,1556 Dyer St,Middleton,ID,83644,414990,3,2.0,Waverly Park,1694,8276,2025,44,245,42,Active,,,https://www.redfin.com/ID/Middleton/1556-Dyer-St-83644/home/199289055,IMLS,98968581,N,Y,43.7134886,-116.5914203
MLS Listing,,Single Family Residential,18495 N Monkshood Ave,Nampa,ID,83687,414990,4,2.0,Solano Place,1860,7405,2025,130,223,53,Active,,,https://www.redfin.com/ID/Nampa/18495-N-Monkshood-Ave-83687/home/196890867,IMLS,98960887,N,Y,43.606513,-116.527358
New Construction Plan,,Single Family Residential,Plan 2070 Plan,Pnsusq Meridian,ID,83642,414990,3,2.5,Meridian,2070,,,207,200,,Active,,,https://www.redfin.com/ID/Pnsusq-Meridian/Meridian/Plan-2070/home/196150652,Zillow,AD02F7F668B6,N,Y,43.6118697,-116.4517802
MLS Listing,,Single Family Residential,3002 E Boulder Basin Dr,Kuna,ID,83634,414990,3,2.5,Ledgestone,1887,4399,2025,88,220,50,Active,,,https://www.redfin.com/ID/Kuna/3002-E-Boulder-Basin-Dr-83634/home/198727755,IMLS,98965261,N,Y,43.513433,-116.376793
New Construction Plan,,Single Family Residential,Amethyst Plan,Nampa,ID,83651,414990,3,2.5,Nampa,2270,,,276,183,,Active,,,https://www.redfin.com/ID/Nampa/Nampa/Amethyst/home/188293808,Zillow,BB3260EA4BE5,N,Y,43.6009699,-116.621961
MLS Listing,,Single Family Residential,18119 N Lion Head Ave,Nampa,ID,83687,414990,4,2.0,Magnolia Estates,1860,6969,2025,130,223,73,Active,,,https://www.redfin.com/ID/Nampa/18119-N-Lion-Head-Ave-83687/home/196890919,IMLS,98960888,N,Y,43.6358059,-116.5760833
MLS Listing,,Single Family Residential,3310 S Maple Ranch Way,Nampa,ID,83686,414990,3,2.0,Seven Maples Ranch,1860,6098,2025,53,223,46,Active,,,https://www.redfin.com/ID/Nampa/3310-S-Maple-Ranch-Way-83686/home/196892480,IMLS,98968435,N,Y,43.5375708,-116.5280509
MLS Listing,,Single Family Residential,6825 S Old Farm Ave,Meridian,ID,83642,414990,3,2.0,Memory Ranch,1694,5270,2025,193,245,58,Active,,,https://www.redfin.com/ID/Meridian/6825-S-Old-Farm-Ave-83642/home/196278268,IMLS,98953621,N,Y,43.542778,-116.443247
New Construction Plan,,Single Family Residential,The Hudson Plan,Kuna,ID,83634,414990,3,2.0,Kuna,1574,,,56,264,,Active,,,https://www.redfin.com/ID/Kuna/Kuna/The-Hudson/home/199247850,Zillow,D98A08F84CAE,N,Y,43.515159606933594,-116.36758422851562
MLS Listing,,Single Family Residential,TBD E Misty Falls St Unit Middleton,Kuna,ID,83634,414990,3,2.5,Ashton Estates,1743,5009,2025,34,238,29,Active,,,https://www.redfin.com/ID/Kuna/TBD-E-Misty-Falls-St-83634/unit-Middleton/home/199633307,IMLS,98969690,N,Y,43.4981189,-116.3863546
MLS Listing,,Single Family Residential,4922 Blue Silver St,Caldwell,ID,83605,414990,4,2.0,Topaz Ranch,2025,8276,2025,256,205,46,Active,,,https://www.redfin.com/ID/Caldwell/4922-Blue-Silver-St-83605/home/191859418,IMLS,98945715,N,Y,43.671153,-116.636887
MLS Listing,,Single Family Residential,308 N Coltsfoot Ave,Kuna,ID,83634,414990,3,2.0,Madrone Heights,1699,5009,2025,76,244,42,Active,,,https://www.redfin.com/ID/Kuna/308-N-Coltsfoot-Ave-83634/home/198833540,IMLS,98966410,N,Y,43.491208,-116.44181
MLS Listing,,Single Family Residential,3266 E Fitz Roy Ct,Kuna,ID,83634,414990,3,2.0,Bellaro Springs,1408,5575,2026,31,295,67,Active,,,https://www.redfin.com/ID/Kuna/3266-E-Fitz-Roy-St-83634/home/199554790,IMLS,98969851,N,Y,43.5167179,-116.3814858
MLS Listing,,Single Family Residential,2478 W Fallon Lp,Nampa,ID,83651,414990,3,2.5,Clearcreek,1775,4791,2025,53,234,67,Active,,,https://www.redfin.com/ID/Nampa/2478-W-Fallon-Loop-83651/home/199290411,IMLS,98968405,N,Y,43.5727266,-116.6108345
MLS Listing,,Single Family Residential,1603 Long Pond St,Middleton,ID,83644,414990,3,2.0,Kestrel Estates,1694,8276,2025,28,245,41,Active,,,https://www.redfin.com/ID/Middleton/1603-Long-Pond-St-83644/home/196890228,IMLS,98970091,N,Y,43.749493,-116.584251
MLS Listing,,Single Family Residential,11033 Cart St,Caldwell,ID,83605,414990,4,2.0,Masterson Ranch,2025,6098,2025,116,205,50,Active,,,https://www.redfin.com/ID/Caldwell/11033-Cart-St-83605/home/196890617,IMLS,98962410,N,Y,43.6524448,-116.613974
MLS Listing,,Single Family Residential,2905 E Valley Wind St,Kuna,ID,83634,414990,3,2.0,Ledgestone,1522,5488,2025,123,273,50,Active,,,https://www.redfin.com/ID/Kuna/2905-E-Valley-Wind-St-83634/home/197969948,IMLS,98961670,N,Y,43.513306,-116.377704
MLS Listing,,Single Family Residential,4258 E Woodmurra St,Meridian,ID,83642,414990,3,2.5,Centerville,1471,3615,2025,151,282,58,Active,,,https://www.redfin.com/ID/Meridian/4258-E-Woodmurra-St-83642/home/197197383,IMLS,98958543,N,Y,43.5608023,-116.3413484
MLS Listing,,Single Family Residential,3033 S Maple Ranch Way,Nampa,ID,83686,414990,3,2.5,Seven Maples Ranch,1775,4791,2025,53,234,46,Active,,,https://www.redfin.com/ID/Nampa/3033-S-Maple-Ranch-Way-83686/home/196892453,IMLS,98968424,N,Y,43.5402555,-116.5278259
MLS Listing,,Single Family Residential,3878 E Syracuse St,Nampa,ID,83686,414990,4,2.0,New York Landing,1860,6098,2025,87,223,58,Active,,,https://www.redfin.com/ID/Nampa/3878-E-Syracuse-St-83686/home/196888084,IMLS,98965351,N,Y,43.52773,-116.523029
MLS Listing,,Single Family Residential,312 N Meadowsweet Ave,Kuna,ID,83634,414990,3,2.0,Madrone Heights,1694,5140,2025,64,245,42,Active,,,https://www.redfin.com/ID/Kuna/312-N-Meadowsweet-Ave-83634/home/199067251,IMLS,98967504,N,Y,43.491214,-116.439924
MLS Listing,,Single Family Residential,6817 S Old Farm Ave,Meridian,ID,83642,414990,3,2.5,Memory Ranch,1650,5880,2025,171,252,58,Active,,,https://www.redfin.com/ID/Meridian/6817-S-Old-Farm-Ave-83642/home/196682835,IMLS,98956239,N,Y,43.542902,-116.443248
New Construction Plan,,Single Family Residential,Crestwood Plan,Kuna,ID,83634,414990,3,2.0,Kuna,2009,,,77,207,,Active,,,https://www.redfin.com/ID/Kuna/Kuna/Crestwood/home/198827814,Zillow,BDF9EBC09C1F,N,Y,43.4838856,-116.4159087
MLS Listing,,Single Family Residential,4209 N Delphi Ave,Meridian,ID,83646,414990,3,2.5,Aegean Estates,1471,5052,2025,144,282,54,Active,,,https://www.redfin.com/ID/Meridian/4209-N-Delphi-Ave-83646/home/197358317,IMLS,98959313,N,Y,43.643256,-116.472858
New Construction Plan,,Single Family Residential,Crestwood Plan,Nampa,ID,83687,414990,3,2.0,Nampa,2009,,,293,207,,Active,,,https://www.redfin.com/ID/Nampa/Nampa/Crestwood/home/195189413,Zillow,1BD390449A3C,N,Y,43.6199706,-116.546966
MLS Listing,,Single Family Residential,4160 E Woodmurra St,Meridian,ID,83642,414990,3,2.5,Centerville,1630,3615,2025,279,255,58,Active,,,https://www.redfin.com/ID/Meridian/4160-E-Woodmurra-St-83642/home/196515144,IMLS,98941971,N,Y,43.5608011,-116.3422929
MLS Listing,,Single Family Residential,7178 E Shields Dr,Nampa,ID,83687,414990,3,2.0,Spring Shores,1694,8712,2025,56,245,60,Active,,,https://www.redfin.com/ID/Nampa/7178-E-Shields-Dr-83687/home/196888651,IMLS,98968161,N,Y,43.629283,-116.545132
New Construction Plan,,Single Family Residential,Goldfinch Plan,Star,ID,83669,414990,3,2.5,Star,1946,,,1,213,,Active,,,https://www.redfin.com/ID/Star/Star/Goldfinch/home/190799355,Zillow,1DAC270CBFAE,N,Y,43.6914625,-116.5086255
MLS Listing,,Single Family Residential,18360 N Trumpet Lily Ave,Nampa,ID,83687,414990,3,2.0,Solano Place,1694,7405,2025,116,245,53,Active,,,https://www.redfin.com/ID/Nampa/18360-N-Trumpet-Lily-Ave-83687/home/196890881,IMLS,98962405,N,Y,43.63864,-116.578099
New Construction Home,,Townhouse,4113 W Perspective St,Eagle,ID,83616,414900,3,2.5,Eagle,1864,,2026,3,223,,Active,,,https://www.redfin.com/ID/Eagle/4113-W-Perspective-St-83616/home/197666980,Zillow,C8B6D3F9736E,N,Y,43.6960403,-116.4050106
MLS Listing,,Townhouse,2160 E Deep Purple Ln,Meridian,ID,83642,414900,3,2.5,Lavender Heights,1590,1611,2026,3,261,73,Active,January-17-2026 12:00 PM,January-17-2026 03:00 PM,https://www.redfin.com/ID/Meridian/2160-E-Deep-Purple-Ln-83642/home/200031633,IMLS,98971613,N,Y,43.5469444,-116.3676495
New Construction Home,,Townhouse,4125 W Perspective St,Eagle,ID,83616,414900,3,2.5,Eagle,1864,,2026,3,223,,Active,,,https://www.redfin.com/ID/Eagle/4125-W-Perspective-St-83616/home/197666982,Zillow,3B54454C6DD6,N,Y,43.696042,-116.405174
MLS Listing,,Single Family Residential,19619 Delmarva Ave,Caldwell,ID,83605,414900,4,2.0,Saddleback,2021,6098,2022,6,205,31,Active,January-17-2026 12:00 PM,January-17-2026 01:00 PM,https://www.redfin.com/ID/Caldwell/19619-Delmarva-Ave-83605/home/179851218,IMLS,98971388,N,Y,43.6575305,-116.6170688
MLS Listing,,Single Family Residential,16697 Carlin Ave,Caldwell,ID,83607,413990,4,2.0,Chestnut Heights,1860,7840,2025,64,223,46,Active,,,https://www.redfin.com/ID/Caldwell/16697-Carlin-Ave-83607/home/196889804,IMLS,98967484,N,Y,43.616007,-116.679214
MLS Listing,,Single Family Residential,343 N Coltsfoot Ave,Kuna,ID,83634,413990,3,2.0,Madrone Heights,1694,5096,2025,64,244,42,Active,,,https://www.redfin.com/ID/Kuna/343-N-Coltsfoot-Ave-83634/home/199067252,IMLS,98967501,N,Y,43.491481,-116.442046
MLS Listing,,Single Family Residential,194 W Omphale St,Kuna,ID,83634,413990,3,2.5,Sera Sole,2058,5314,2025,52,201,55,Active,,,https://www.redfin.com/ID/Kuna/194-W-Omphale-St-83634/home/197666381,IMLS,98968498,N,Y,43.48471450805664,-116.41619873046875
MLS Listing,,Single Family Residential,18434 N Sparkleberry Ave,Nampa,ID,83687,413800,3,2.0,Sweetwater Glen,1474,6534,2026,82,281,77,Active,,,https://www.redfin.com/ID/Nampa/18434-N-Sparkleberry-Ave-83687/home/196891011,IMLS,98965822,N,Y,43.606513,-116.527358
New Construction Plan,,Single Family Residential,Plan 1474 Plan,Nampa,ID,83687,413800,3,2.0,Nampa,1474,,,491,281,,Active,,,https://www.redfin.com/ID/Nampa/Nampa/Plan-1474/home/192520881,Zillow,1718DBDCF39E,N,Y,43.634887,-116.565543
MLS Listing,,Single Family Residential,10114 Longtail Dr,Nampa,ID,83687,413695,3,3.0,Adams Ridge,1666,6141,2025,119,248,50,Active,,,https://www.redfin.com/ID/Nampa/10114-Longtail-Dr-83687/home/196015906,IMLS,98962191,N,Y,43.63261,-116.603179
MLS Listing,,Single Family Residential,1436 N Coltsfoot Ave,Kuna,ID,83634,412990,3,2.0,Fossil Creek,1694,5619,2025,223,244,54,Active,,,https://www.redfin.com/ID/Kuna/1436-N-Coltsfoot-Ave-83634/home/194183251,IMLS,98945737,N,Y,43.501389,-116.441833
MLS Listing,,Single Family Residential,16790 Carlin Ave,Caldwell,ID,83607,412990,4,2.0,Chestnut Heights,2025,7840,2025,152,204,46,Active,,,https://www.redfin.com/ID/Caldwell/16790-Carlin-Ave-83607/home/196974658,IMLS,98957778,N,Y,43.61662673950195,-116.66229248046875
New Construction Home,,Single Family Residential,16790 Carlin Ave,Caldwell,ID,83607,412990,4,2.0,Caldwell,2025,,2025,150,204,,Active,,,https://www.redfin.com/ID/Caldwell/16790-Carlin-Ave-83607/home/196889819,Zillow,E5F8AB3FBD52,N,Y,43.616221,-116.679449
MLS Listing,,Single Family Residential,2288 W Penstemon St,Kuna,ID,83634,412990,3,2.0,Madrone Heights,1699,5357,2025,64,243,42,Active,,,https://www.redfin.com/ID/Kuna/2288-W-Penstemon-St-83634/home/199067323,IMLS,98967506,N,Y,43.491748,-116.442161
MLS Listing,,Single Family Residential,643 N Manship Ave,Meridian,ID,83642,412000,3,2.5,Chesterfield,1596,3615,2015,100,258,29,Active,,,https://www.redfin.com/ID/Meridian/643-N-Manship-Ave-83642/home/106809190,IMLS,98964114,N,Y,43.610502,-116.444946
MLS Listing,,Single Family Residential,4319 Bainbridge St,Caldwell,ID,83607,412000,4,2.0,Weston Pointe,1845,6098,2018,29,223,13,Active,,,https://www.redfin.com/ID/Caldwell/4319-Bainbridge-St-83607/home/147083933,IMLS,98970004,N,Y,43.6220582,-116.6444591
MLS Listing,,Single Family Residential,3437 E Red Maple Ct,Nampa,ID,83686,411990,3,2.0,Seven Maples Ranch,1522,6534,2025,64,271,46,Active,,,https://www.redfin.com/ID/Nampa/3437-E-Red-Maple-Ct-83686/home/196892492,IMLS,98967472,N,Y,43.5384141,-116.5287741
New Construction Plan,,Single Family Residential,Cypress Plan,Nampa,ID,83651,411990,3,2.5,Nampa,2412,,,311,171,,Active,,,https://www.redfin.com/ID/Nampa/Nampa/Cypress/home/194999957,Zillow,7EC75D0A21BA,N,Y,43.6009699,-116.621961
MLS Listing,,Single Family Residential,4202 S Pumpkin Way,Nampa,ID,83686,411990,3,2.0,Harvest Creek,1408,8363,2026,6,293,50,Active,,,https://www.redfin.com/ID/Nampa/4202-S-Pumpkin-Way-83686/home/196887861,IMLS,98971393,N,Y,43.606514,-116.527359
MLS Listing,,Single Family Residential,1654 Dyer St,Middleton,ID,83644,411990,3,2.0,Waverly Park,1860,8276,2025,21,222,42,Active,,,https://www.redfin.com/ID/Middleton/1654-Dyer-St-83644/home/199791838,IMLS,98970346,N,Y,43.7134867,-116.5896611
MLS Listing,,Single Family Residential,7336 S Bungalow Ave,Meridian,ID,83642,411990,3,2.0,Whisper Meadows,1522,5749,2025,17,271,42,Active,,,https://www.redfin.com/ID/Meridian/7336-S-Bungalow-Ave-83642/home/199884535,IMLS,98970571,N,Y,43.53808,-116.415559
MLS Listing,,Single Family Residential,310 N Cranesbill Ave,Kuna,ID,83634,411990,3,2.0,Madrone Heights,1694,5706,2025,123,243,42,Active,,,https://www.redfin.com/ID/Kuna/310-N-Cranesbill-Ave-83634/home/197970393,IMLS,98961672,N,Y,43.491196,-116.438984
MLS Listing,,Single Family Residential,10079 Longtail Dr,Nampa,ID,83687,411662,3,2.0,Adams Ridge,1523,6141,2025,28,270,54,Active,,,https://www.redfin.com/ID/Nampa/10079-Longtail-Dr-83687/home/196888769,IMLS,98970153,N,Y,43.606513,-116.527358
New Construction Plan,,Single Family Residential,Plan 2135 Plan,Nampa,ID,83687,410990,4,2.0,Nampa,2135,,,270,193,,Active,,,https://www.redfin.com/ID/Nampa/Nampa/Plan-2135/home/195474630,Zillow,68E8242D7BE9,N,Y,43.554183,-116.5140599
New Construction Plan,,Single Family Residential,Brooke Plan,Caldwell,ID,83687,410990,3,2.0,Nampa,2286,,,238,180,,Active,,,https://www.redfin.com/ID/Caldwell/Nampa/Brooke/home/194104013,Zillow,273545F06BB2,N,Y,43.6556165,-116.6084959
MLS Listing,,Single Family Residential,7189 E Shields Dr,Nampa,ID,83687,410990,4,2.0,Spring Shores,1600,8712,2025,95,257,60,Active,,,https://www.redfin.com/ID/Nampa/7189-E-Shields-Dr-83687/home/196888635,IMLS,98964548,N,Y,43.629283,-116.545132
MLS Listing,,Single Family Residential,7338 S Menzingers Ave,Meridian,ID,83642,410990,3,2.0,Whisper Meadows,1522,6011,2025,17,270,42,Active,,,https://www.redfin.com/ID/Meridian/7338-S-Menzingers-Ave-83642/home/199884523,IMLS,98970567,N,Y,43.538007,-116.414503
MLS Listing,,Single Family Residential,5506 Barkley Way,Caldwell,ID,83607,410528,3,2.0,Aspens,1505,6969,2019,27,273,17,Active,,,https://www.redfin.com/ID/Caldwell/5506-Barkley-Way-83607/home/165447018,IMLS,98970170,N,Y,43.6203053,-116.6676953
MLS Listing,,Single Family Residential,16442 N Putting Ct,Nampa,ID,83687,410500,3,2.0,Greens At Ridgecrest,1688,4356,2015,129,243,60,Active,,,https://www.redfin.com/ID/Nampa/16442-N-Putting-Ct-83687/home/116662712,IMLS,98960999,N,Y,43.6120417,-116.5249477
MLS Listing,,Single Family Residential,2407 Stormy Mountain Pl,Mountain Home,ID,83647,410000,3,2.0,Stormy Mountain,1604,10018,2003,8,256,,Active,January-18-2026 12:00 PM,January-18-2026 03:00 PM,https://www.redfin.com/ID/Mountain-Home/2407-Stormy-Mountain-Pl-83647/home/147657137,IMLS,98971183,N,Y,43.1574671,-115.6988087
MLS Listing,,Single Family Residential,1067 N Clithero,Boise,ID,83703,410000,2,1.0,Clithero Sub,664,6098,1948,9,617,,Active,,,https://www.redfin.com/ID/Boise/1067-N-Clithero-Dr-83703/home/106661695,IMLS,98971106,N,Y,43.636971,-116.233047
MLS Listing,,Condo/Co-op,406 S 13th #303,Boise,ID,83702,410000,1,1.0,CitySide Lofts,910,,2008,93,451,291,Active,,,https://www.redfin.com/ID/Boise/406-S-13th-St-83702/unit-303/home/106718935,IMLS,98964771,N,Y,43.6158373,-116.2119263
MLS Listing,,Townhouse,1638 W Raincrest Dr,Meridian,ID,83646,410000,3,2.0,Tully Cove,1388,5227,2005,1,295,73,Active,,,https://www.redfin.com/ID/Meridian/1638-W-Raincrest-Dr-83646/home/106804035,IMLS,98971866,N,Y,43.6278559,-116.4141321
MLS Listing,,Multi-Family (2-4 Unit),312 Denker,Caldwell,ID,83605,410000,4,2.0,DenkerS Replat,2000,,1977,1,205,,Active,,,https://www.redfin.com/ID/Caldwell/312-Denker-Dr-83605/home/116738762,IMLS,98971983,N,Y,43.6676491,-116.6610409
MLS Listing,,Single Family Residential,2138 W Penstemon St,Kuna,ID,83634,409990,3,2.0,Madrone Heights,1522,5314,2025,101,269,42,Active,,,https://www.redfin.com/ID/Kuna/2138-W-Penstemon-St-83634/home/198505633,IMLS,98964017,N,Y,43.491745,-116.440209
MLS Listing,,Single Family Residential,4411 Belethor Ave,Caldwell,ID,83605,409990,4,2.0,Greenmont,2279,6011,2025,145,180,54,Active,,,https://www.redfin.com/ID/Caldwell/4411-Belethor-AVE-83605/home/197355709,IMLS,98959282,N,Y,43.63224792480469,-116.67549133300781
MLS Listing,,Single Family Residential,18486 N Trumpet Lily Ave,Nampa,ID,83687,409990,4,2.0,Solano Place,1860,7840,2025,140,220,53,Active,,,https://www.redfin.com/ID/Nampa/18486-N-Trumpet-Lily-Ave-83687/home/196890876,IMLS,98959879,N,Y,43.63864,-116.578099
New Construction Plan,,Single Family Residential,The Middleton Plan,Kuna,ID,83634,409990,3,2.5,Kuna,1743,,,41,235,,Active,,,https://www.redfin.com/ID/Kuna/Kuna/The-Middleton/home/199554789,Zillow,197442050EB0,N,Y,43.4962079,-116.3870071
MLS Listing,,Single Family Residential,3915 E Syracuse St,Nampa,ID,83686,409990,3,2.0,New York Landing,1694,6098,2025,4,242,58,Active,,,https://www.redfin.com/ID/Nampa/3915-E-Syracuse-St-83686/home/196888105,IMLS,98971479,N,Y,43.500385,-116.612158
MLS Listing,,Single Family Residential,9165 W Lion Head Ct,Nampa,ID,83687,409990,3,2.0,Magnolia Estates,1694,6969,2025,130,242,73,Active,,,https://www.redfin.com/ID/Nampa/9165-N-Lion-Head-Ct-83687/home/196890914,IMLS,98960892,N,Y,43.638716,-116.576511
MLS Listing,,Single Family Residential,3086 N Saratov Way,Kuna,ID,83634-4856,409990,4,2.0,Saranda,1853,6359,2019,120,221,89,Active,,,https://www.redfin.com/ID/Kuna/3086-N-Saratov-Way-83634/home/172683205,IMLS,98961869,N,Y,43.5164146,-116.4067118
MLS Listing,,Single Family Residential,1071 Woods Bog Ave,Middleton,ID,83644,409990,4,2.0,Kestrel Estates,1722,8712,2025,28,238,41,Active,,,https://www.redfin.com/ID/Middleton/1071-Woods-Bog-Ave-83644/home/196890223,IMLS,98970087,N,Y,43.749493,-116.584251
New Construction Plan,,Single Family Residential,Plan 2018 Plan,Kuna,ID,83634,409990,3,2.0,Kuna,2018,,,51,203,,Active,,,https://www.redfin.com/ID/Kuna/Kuna/Plan-2018/home/199385372,Zillow,4136808C3ED9,N,Y,43.485227,-116.403263
New Construction Plan,,Single Family Residential,Plan 2602 Plan,Caldwell,ID,83605,409990,4,2.5,Caldwell,2602,,,449,158,,Active,,,https://www.redfin.com/ID/Caldwell/Caldwell/Plan-2602/home/193305357,Zillow,3E5095393FC4,N,Y,43.6711117,-116.6185815
MLS Listing,,Single Family Residential,5022 S Amorita Ave,Meridian,ID,83709,409990,3,2.5,Centerville,1471,3397,2025,140,279,58,Active,,,https://www.redfin.com/ID/Meridian/5022-S-Amorita-Ave-83642/home/197547132,IMLS,98959897,N,Y,43.5591417,-116.3406639
MLS Listing,,Single Family Residential,4209 E Woodmurra St,Meridian,ID,83642,409990,3,2.5,Centerville,1471,3441,2025,171,279,58,Active,,,https://www.redfin.com/ID/Meridian/4209-E-Woodmurra-St-83642/home/196682634,IMLS,98956213,N,Y,43.5604874,-116.3418477
MLS Listing,,Single Family Residential,11694 W Bird Rock Dr,Nampa,ID,83686,409900,3,2.5,Spyglass,1691,6534,2025,56,242,67,Active,January-17-2026 10:00 AM,January-17-2026 12:00 PM,https://www.redfin.com/ID/Nampa/11694-W-Bird-Rock-Dr-83686/home/190571093,IMLS,98968087,N,Y,43.555299,-116.626482
New Construction Plan,,Single Family Residential,Affirm Plan,Kuna,ID,83634,409900,2,2.0,Kuna,1624,,,118,252,,Active,,,https://www.redfin.com/ID/Kuna/Kuna/Affirm/home/188279339,Zillow,7572F3C28828,N,Y,43.4958561,-116.3289
MLS Listing,,Single Family Residential,2630 W Balboa Dr,Kuna,ID,83634,409900,3,2.0,Crimson Point South,1445,5619,2020,49,284,32,Active,,,https://www.redfin.com/ID/Kuna/2630-W-Balboa-Dr-83634/home/174324442,IMLS,98968669,N,Y,43.5027479,-116.4462653
MLS Listing,,Townhouse,1308 N Meadowglen,Meridian,ID,83642,409900,2,2.5,Pine 43,1596,1742,2025,125,257,125,Active,January-17-2026 01:00 PM,January-17-2026 04:00 PM,https://www.redfin.com/ID/Meridian/1308-N-Meadowglen-Ave-83642/home/186473799,IMLS,98961588,N,Y,43.6163593,-116.368168
MLS Listing,,Townhouse,1439 N Webb Way,Meridian,ID,83642-9180,409900,3,2.5,Pine 43,1639,2613,2026,7,250,125,Active,,,https://www.redfin.com/ID/Meridian/1439-N-Webb-Way-83642/home/186473845,IMLS,98971257,N,Y,43.617904,-116.367457
MLS Listing,,Single Family Residential,3045 N Kankakee Way,Kuna,ID,83634,409850,3,2.0,Thunder Rock,1474,6577,2026,58,278,90,Active,,,https://www.redfin.com/ID/Kuna/3045-N-Kankakee-Way-83634/home/199150629,IMLS,98967954,N,Y,43.515972,-116.444531
MLS Listing,,Single Family Residential,19343 Snowyside Way,Caldwell,ID,83605,409151,3,2.0,Mason Creek,1446,8276,2025,28,283,50,Active,,,https://www.redfin.com/ID/Caldwell/19343-Snowyside-Way-83605/home/196011661,IMLS,98970158,N,Y,43.664948,-116.641769
MLS Listing,,Single Family Residential,14726 Wing Spread Dr,Caldwell,ID,83607,409000,3,2.5,Passero Ridge,1763,4399,2025,47,232,83,Active,,,https://www.redfin.com/ID/Caldwell/14726-Wing-Spread-Dr-83607/home/191858381,IMLS,98968733,N,Y,43.596805,-116.687441
MLS Listing,,Single Family Residential,1887 N Buena Vista Ave,Meridian,ID,83646,409000,3,2.0,La Playa Manor,1489,4356,1998,11,275,65,Active,,,https://www.redfin.com/ID/Meridian/1887-N-Buena-Vista-Ave-83646/home/106753033,IMLS,98970900,N,Y,43.6218918,-116.3896776
MLS Listing,,Single Family Residential,6403 W Colonial Dr,Boise,ID,83709,409000,3,1.5,Franklin Park,1128,7405,1959,7,363,,Active,January-18-2026 01:30 PM,January-18-2026 03:30 PM,https://www.redfin.com/ID/Boise/6403-W-Colonial-Dr-83709/home/106746082,IMLS,98971014,N,Y,43.601293,-116.261584
MLS Listing,,Single Family Residential,18376 N Strawflower Ave,Nampa,ID,83687,409000,3,2.0,Solano Place,1522,6969,2024,12,269,45,Active,,,https://www.redfin.com/ID/Nampa/18376-N-Strawflower-Ave-83687/home/181156176,IMLS,98970846,N,Y,43.639303,-116.5738617
MLS Listing,,Single Family Residential,5002 S Amorita Ave,Meridian,ID,83642,408990,3,2.5,Centerville,1471,3441,2025,151,278,58,Active,,,https://www.redfin.com/ID/Meridian/5002-S-Amorita-Ave-83642/home/197197549,IMLS,98958546,N,Y,43.559437,-116.34073
New Construction Plan,,Single Family Residential,Sawtooth Plan,Kuna,ID,83634,408990,3,2.5,Kuna,2058,,,52,199,,Active,,,https://www.redfin.com/ID/Kuna/Kuna/Sawtooth/home/199294653,Zillow,33427C77A751,N,Y,43.4838856,-116.4159087
MLS Listing,,Single Family Residential,2893 E Valley Wind St,Kuna,ID,83634,408990,3,2.0,Ledgestone,1445,5488,2025,123,283,50,Active,,,https://www.redfin.com/ID/Kuna/2893-E-Valley-Wind-St-83634/home/197969951,IMLS,98961668,N,Y,43.513301,-116.3779
MLS Listing,,Single Family Residential,12510 Ochoco St,Nampa,ID,83651,408900,3,2.5,Dakota Crossing,1646,5227,2025,108,248,23,Active,January-17-2026 12:00 PM,January-17-2026 02:00 PM,https://www.redfin.com/ID/Nampa/12510-Ochoco-St-83651/home/116901737,IMLS,98963282,N,Y,43.607314,-116.643196
MLS Listing,,Single Family Residential,20663 Krantze Ave,Caldwell,ID,83605,408878,4,2.0,Maple Hill,1882,6098,2025,113,217,46,Active,,,https://www.redfin.com/ID/Caldwell/20663-Krantze-Ave-83605/home/198206180,IMLS,98962727,N,Y,43.6719781,-116.6166008
MLS Listing,,Condo/Co-op,412 S 13th St #208,Boise,ID,83702,408000,1,1.0,CitySide Lofts,852,,2007,9,479,283,Active,,,https://www.redfin.com/ID/Boise/412-S-13th-St-83702/unit-208/home/106675984,IMLS,98971027,N,Y,43.6156174,-116.2124564
MLS Listing,,Single Family Residential,9037 W Camellia St,Nampa,ID,83687,407990,4,2.0,Magnolia Estates,1600,7405,2025,88,255,73,Active,,,https://www.redfin.com/ID/Nampa/9037-W-Camellia-St-83687/home/196890948,IMLS,98965272,N,Y,43.6357678,-116.5742625
MLS Listing,,Single Family Residential,TBD E Fitz Roy Pl Unit Edgewood,Kuna,ID,83634,407990,3,2.0,Bellaro Springs,1408,5706,2026,61,290,67,Active,,,https://www.redfin.com/ID/Kuna/TBD-E-Fitz-Roy-St-83634/unit-Edgewood/home/199115033,IMLS,98967736,N,Y,43.5167304,-116.3824925
MLS Listing,,Single Family Residential,1966 N Pilgrim Ave,Boise,ID,83704,407900,3,2.0,Jonathan Park,1472,10018,1990,48,277,30,Active,,,https://www.redfin.com/ID/Boise/1966-N-Pilgrim-Ave-83704/home/106703196,IMLS,98968717,N,Y,43.6227968,-116.3045925
New Construction Plan,,Single Family Residential,Plan 1474 Plan,Middleton,ID,83644,407900,3,2.0,Middleton,1474,,,130,277,,Active,,,https://www.redfin.com/ID/Middleton/Middleton/Plan-1474/home/197745064,Zillow,61999EBA2B3C,N,Y,43.702999114990234,-116.63829803466797
New Construction Plan,,Single Family Residential,Plan 2326 Modeled Plan,Nampa,ID,83687,406990,4,2.0,Nampa,2326,,,328,175,,Active,,,https://www.redfin.com/ID/Nampa/Nampa/Plan-2326-Modeled/home/194820737,Zillow,96E90D1610AE,N,Y,43.6545068,-116.5528788
MLS Listing,,Single Family Residential,7268 S Menzingers Ave,Meridian,ID,83642,405990,3,2.0,Whisper Meadows,1445,5357,2025,56,281,42,Active,,,https://www.redfin.com/ID/Meridian/7268-S-Menzingers-Ave-83642/home/199245689,IMLS,98968182,N,Y,43.538695,-116.414466
MLS Listing,,Single Family Residential,5562 E Lekeitio Village Dr,Nampa,ID,83687,405990,3,2.0,Lekeitio Village,1408,7187,2025,7,288,41,Active,January-17-2026 01:00 PM,January-17-2026 03:00 PM,https://www.redfin.com/ID/Nampa/5562-E-Lekeitio-Village-Dr-83687/home/196888511,IMLS,98958064,N,Y,43.625757,-116.506589
New Construction Plan,,Single Family Residential,Plan 1474 Plan,Kuna,ID,83634,405850,3,2.0,Kuna,1474,,,16,275,,Active,,,https://www.redfin.com/ID/Kuna/Kuna/Plan-1474/home/199889837,Zillow,F61DABE12D1C,N,Y,43.516876,-116.446593
New Construction Home,,Single Family Residential,3073 N Kankakee Way,Kuna,ID,83634,405850,3,2.0,Kuna,1474,,2026,3,275,,Active,,,https://www.redfin.com/ID/Kuna/3073-N-Kankakee-Way-83634/home/200029055,Zillow,E27F2D23DC49,N,Y,43.516248,-116.444529
MLS Listing,,Single Family Residential,1144 S Grayling Ave,Meridian,ID,83642,405432,3,2.0,Blue Horizon,1225,8712,2004,93,331,17,Active,,,https://www.redfin.com/ID/Meridian/1144-S-Grayling-Ave-83642/home/106809651,IMLS,98964804,N,Y,43.5943507,-116.4089564
MLS Listing,,Single Family Residential,1443 W Washington,Meridian,ID,83642,405000,3,2.0,Phillips Add,1392,10018,1976,96,291,,Active,,,https://www.redfin.com/ID/Meridian/1443-Washington-St-83642/home/106664786,IMLS,98964521,N,Y,43.6149598,-116.4122578
MLS Listing,,Single Family Residential,12443 Varga St,Caldwell,ID,83607,405000,3,2.0,Brittany Heights,1620,6054,2023,106,250,40,Active,,,https://www.redfin.com/ID/Caldwell/12443-Varga-St-83607/home/184811633,IMLS,98963663,N,Y,43.615107,-116.6418168
MLS Listing,,Single Family Residential,775 E Red Bud St,Kuna,ID,83634,405000,3,2.0,Pieroni Subdivision,1829,8755,2003,115,221,19,Active,,,https://www.redfin.com/ID/Kuna/775-E-Red-Bud-St-83634/home/106811972,IMLS,98962543,N,Y,43.4797684,-116.4041648
New Construction Plan,,Single Family Residential,Gemma Plan,Middleton,ID,83644,404995,3,2.0,Middleton,1688,,,602,240,,Active,,,https://www.redfin.com/ID/Middleton/Middleton/Gemma/home/190904648,Zillow,18DDF8346563,N,Y,43.7231076,-116.6383002
MLS Listing,,Single Family Residential,315 N Madrone Ave,Kuna,ID,83634,404990,3,2.0,Madrone Heights,1522,5009,2025,53,266,42,Active,,,https://www.redfin.com/ID/Kuna/315-N-Madrone-Ave-83634/home/199289333,IMLS,98968382,N,Y,43.491219,-116.441109
New Construction Plan,,Single Family Residential,Brooke Plan,Nampa,ID,83651,404990,3,2.0,Nampa,2286,,,368,177,,Active,,,https://www.redfin.com/ID/Nampa/Nampa/Brooke/home/194226080,Zillow,383BE6749079,N,Y,43.6009699,-116.621961
MLS Listing,,Single Family Residential,16289 Fill Ave,Caldwell,ID,83607,404990,4,2.0,Guches Place,2025,7840,2025,151,200,50,Active,,,https://www.redfin.com/ID/Caldwell/16289-Fill-Ave-83607/home/196889832,IMLS,98958569,N,Y,43.60963,-116.66007
MLS Listing,,Single Family Residential,18374 N Trumpet Lily Ave,Nampa,ID,83687,404990,3,2.0,Solano Place,1447,7405,2025,116,280,53,Active,,,https://www.redfin.com/ID/Nampa/18374-N-Trumpet-Lily-Ave-83687/home/196890880,IMLS,98962404,N,Y,43.63864,-116.578099
MLS Listing,,Single Family Residential,9093 W Camellia St,Nampa,ID,83687,404990,3,2.0,Magnolia Estates,1522,6969,2025,64,266,73,Active,,,https://www.redfin.com/ID/Nampa/9093-W-Camellia-St-83687/home/196890955,IMLS,98967539,N,Y,43.6357407,-116.5752276
MLS Listing,,Single Family Residential,2260 W Penstemon St,Kuna,ID,83634,404990,3,2.0,Madrone Heights,1522,5357,2025,88,266,42,Active,,,https://www.redfin.com/ID/Kuna/2260-W-Penstemon-St-83634/home/198727723,IMLS,98965250,N,Y,43.491743,-116.441783
MLS Listing,,Single Family Residential,335 N Meadowsweet Ave,Kuna,ID,83634,404990,4,2.0,Madrone Heights,1860,5009,2025,56,218,42,Active,,,https://www.redfin.com/ID/Kuna/335-N-Meadowsweet-Ave-83634/home/199245934,IMLS,98968194,N,Y,43.49135,-116.440183
MLS Listing,,Single Family Residential,16264 Fill Ave,Caldwell,ID,83607,404990,3,2.0,Guches Place,1694,6098,2025,76,239,50,Active,,,https://www.redfin.com/ID/Caldwell/16264-Fill-Ave-83607/home/196889837,IMLS,98966423,N,Y,43.60963,-116.66007
MLS Listing,,Single Family Residential,16727 Carlin Ave,Caldwell,ID,83607,404990,4,2.5,Chestnut Heights,1893,7840,2025,140,214,46,Active,,,https://www.redfin.com/ID/Caldwell/16727-Carlin-Ave-83607/home/196889802,IMLS,98959917,N,Y,43.616007,-116.679214
New Construction Plan,,Single Family Residential,Brooke Plan,Q36oyy Caldwell,ID,83607,404990,3,2.0,Caldwell,2286,,,116,177,,Active,,,https://www.redfin.com/ID/Q36oyy-Caldwell/Caldwell/Brooke/home/198122086,Zillow,15D5B22595E1,N,Y,43.6325909,-116.673044
MLS Listing,,Single Family Residential,2454 W Fallon Lp,Nampa,ID,83651,404990,3,2.5,Clearcreek,1650,4791,2025,53,245,67,Active,,,https://www.redfin.com/ID/Nampa/2454-W-Fallon-Loop-83651/home/199290409,IMLS,98968404,N,Y,43.5730344,-116.6106689
MLS Listing,,Single Family Residential,41 S Sweetgrass Ave,Nampa,ID,83651,404990,3,2.5,Clearcreek,1650,4791,2025,87,245,67,Active,,,https://www.redfin.com/ID/Nampa/41-S-Sweetgrass-Ave-83651/home/198733554,IMLS,98965345,N,Y,43.5730362,-116.6125146
New Construction Plan,,Single Family Residential,Plan 2755 Modeled Plan,Nampa,ID,83687,404990,4,2.5,Nampa,2755,,,314,147,,Active,,,https://www.redfin.com/ID/Nampa/Nampa/Plan-2755-Modeled/home/194972804,Zillow,8EF682B34F7B,N,Y,43.554183,-116.5140599
MLS Listing,,Single Family Residential,TBD E Misty Falls St Unit Hudson,Kuna,ID,83634,404990,3,2.0,Ashton Estates,1574,5706,2026,34,257,29,Active,,,https://www.redfin.com/ID/Kuna/TBD-E-Misty-Falls-St-83634/unit-Hudson/home/199633258,IMLS,98969686,N,Y,43.4981189,-116.3863546
MLS Listing,,Townhouse,124 W Cherry Ave,Meridian,ID,83642,404900,3,2.5,Serendipity Place,1140,4051,2006,46,355,,Active,,,https://www.redfin.com/ID/Meridian/124-W-Cherry-Ave-83642/home/106808285,IMLS,98968753,N,Y,43.6156954,-116.395263
New Construction Home,,Single Family Residential,7656 E Bullhead St,Nampa,ID,83687,404686,3,2.0,Nampa,1646,,2026,9,246,,Active,,,https://www.redfin.com/ID/Nampa/7656-E-Bullhead-ST-83687/home/199971102,Zillow,DC3FF498C31C,N,Y,43.65563201904297,-116.54639434814453
MLS Listing,,Townhouse,11712 W Annalee,Boise,ID,83709,404000,2,2.0,Pepperwood Esta,1292,3484,2005,8,313,150,Active,,,https://www.redfin.com/ID/Boise/11712-W-Annalee-Ln-83709/home/106738485,IMLS,98971146,N,Y,43.5814365,-116.3282031
MLS Listing,,Single Family Residential,3019 S Maple Ranch Way,Nampa,ID,83686,403990,3,2.5,Seven Maples Ranch,1650,4791,2025,53,245,46,Active,,,https://www.redfin.com/ID/Nampa/3019-S-Maple-Ranch-Way-83686/home/196892452,IMLS,98968423,N,Y,43.5403568,-116.527736
MLS Listing,,Single Family Residential,191 W Willow Dale Dr,Kuna,ID,83634,403990,4,2.5,Sera Sole,1762,5619,2026,3,229,55,Active,,,https://www.redfin.com/ID/Kuna/191-W-Willow-Dale-Dr-83634/home/197666392,IMLS,98971606,N,Y,43.483604431152344,-116.4161148071289
MLS Listing,,Single Family Residential,2526 W Fallon Loop,Nampa,ID,83651,403990,3,2.5,Clearcreek,1630,4791,2025,53,248,67,Active,,,https://www.redfin.com/ID/Nampa/2526-W-Fallon-Loop-83651/home/199290452,IMLS,98968409,N,Y,43.5724361,-116.6116377
MLS Listing,,Single Family Residential,17543 Colter Ridge Ave,Nampa,ID,83687,403041,3,2.0,Adams Ridge,1446,6141,2025,28,279,54,Active,,,https://www.redfin.com/ID/Nampa/17543-Colter-Ridge-Ave-83687/home/196888755,IMLS,98970155,N,Y,43.606513,-116.527358
New Construction Plan,,Single Family Residential,The Orchard Plan,Caldwell,ID,83605,402990,3,2.0,Caldwell,1800,,,360,224,,Active,,,https://www.redfin.com/ID/Caldwell/Caldwell/The-Orchard/home/188415460,Zillow,ADBFA4727F1C,N,Y,43.650871,-116.6216968
New Construction Plan,,Single Family Residential,Charlotte Plan,Saint Meridian,ID,83646,402990,3,2.0,Meridian,1618,,,71,249,,Active,,,https://www.redfin.com/ID/Saint-Meridian/Meridian/Charlotte/home/198811316,Zillow,BB3A999131A5,N,Y,43.6563148,-116.4677059
MLS Listing,,Single Family Residential,19386 Schooner Ave,Caldwell,ID,83605,402990,4,2.0,Masterson Ranch,2025,6098,2025,147,199,50,Active,,,https://www.redfin.com/ID/Caldwell/19386-Schooner-Ave-83605/home/196682516,IMLS,98956191,N,Y,43.6542309,-116.6137911
MLS Listing,,Single Family Residential,3117 S Maple Ranch Way,Nampa,ID,83686,402990,3,2.5,Seven Maples Ranch,1650,4791,2025,51,244,46,Active,,,https://www.redfin.com/ID/Nampa/3117-S-Maple-Ranch-Way-83686/home/196892459,IMLS,98968576,N,Y,43.5396472,-116.5283654
MLS Listing,,Single Family Residential,3075 S Maple Ranch Way,Nampa,ID,83686,402990,3,2.5,Seven Maples Ranch,1650,4791,2025,53,244,46,Active,,,https://www.redfin.com/ID/Nampa/3075-S-Maple-Ranch-Way-83686/home/196892456,IMLS,98968427,N,Y,43.5399513,-116.5280957
MLS Listing,,Single Family Residential,3085 N Saratov Way,Kuna,ID,83634-4856,402990,3,2.0,Saranda,1703,5009,2019,24,237,89,Active,,,https://www.redfin.com/ID/Kuna/3085-N-Saratov-Way-83634/home/170282626,IMLS,98970295,N,Y,43.5162908,-116.4072499
New Construction Plan,,Single Family Residential,Crestwood Plan,Nampa,ID,83687,402990,3,2.0,Nampa,2009,,,294,201,,Active,,,https://www.redfin.com/ID/Nampa/Nampa/Crestwood/home/195178459,Zillow,282F4EC7914E,N,Y,43.62703323364258,-116.6010971069336
New Construction Plan,,Townhouse,Plan 1870 Plan,Eagle,ID,83616,402900,3,2.5,Eagle,1864,,,92,216,,Active,,,https://www.redfin.com/ID/Eagle/Eagle/Plan-1870/home/198626646,Zillow,A8A839837E72,N,Y,43.6971285,-116.4058901
MLS Listing,,Townhouse,4111 W Steel Grey Ln,Eagle,ID,83616,402900,3,2.5,Skyview,1879,1698,2026,88,214,163,Active,,,https://www.redfin.com/ID/Eagle/4111-W-Steel-Grey-Ln-83616/home/197666973,IMLS,98965277,N,Y,43.6957799,-116.4050092
New Construction Plan,,Single Family Residential,Plan 1673 Modeled Plan,Meridian,ID,83642,401990,4,2.0,Meridian,1673,,,800,240,,Active,,,https://www.redfin.com/ID/Meridian/Meridian/Plan-1673-Modeled/home/187233869,Zillow,F47C7D84901E,N,Y,43.568215,-116.402303
MLS Listing,,Single Family Residential,7310 S Menzingers Ave,Meridian,ID,83642,401990,3,2.0,Whisper Meadows,1364,5749,2025,4,295,42,Active,,,https://www.redfin.com/ID/Meridian/7310-S-Menzingers-Ave-83642/home/200009303,IMLS,98971474,N,Y,43.538286,-116.414507
New Construction Plan,,Single Family Residential,Plan 2330 Modeled Plan,Nampa,ID,83687,401990,4,2.5,Nampa,2330,,,183,173,,Active,,,https://www.redfin.com/ID/Nampa/Nampa/Plan-2330-Modeled/home/194820751,Zillow,65813C90C80E,N,Y,43.6544348,-116.5523303
MLS Listing,,Single Family Residential,7832 E Meriwether,Nampa,ID,83687,401990,3,2.0,Franklin Village North,1620,6534,2025,158,248,46,Active,,,https://www.redfin.com/ID/Nampa/17686-N-Margay-Ct-83687/home/116899157,IMLS,98957846,N,Y,43.6297683,-116.5509665
MLS Listing,,Single Family Residential,2542 W Fallon Lp,Nampa,ID,83651,401990,3,2.5,Clearcreek,1597,4791,2025,53,252,67,Active,,,https://www.redfin.com/ID/Nampa/2542-W-Fallon-Loop-83651/home/199290476,IMLS,98968412,N,Y,43.5724353,-116.6119407
New Construction Home,,Single Family Residential,19457 N Summerville Way,Nampa,ID,83687,401377,3,2.0,Nampa,1646,,2026,9,244,,Active,,,https://www.redfin.com/ID/Nampa/19457-N-Summerville-WAY-83687/home/199971103,Zillow,502264A36516,N,Y,43.6548957824707,-116.54756164550781
New Construction Plan,,Single Family Residential,Plan 2391 Modeled Plan,Caldwell,ID,83605,400990,3,2.5,Caldwell,2391,,,449,168,,Active,,,https://www.redfin.com/ID/Caldwell/Caldwell/Plan-2391-Modeled/home/193305360,Zillow,536171F01635,N,Y,43.6711117,-116.6185815
MLS Listing,,Single Family Residential,2486 W Fallon Lp,Nampa,ID,83651,400990,3,2.5,Clearcreek,1597,5227,2025,53,251,67,Active,,,https://www.redfin.com/ID/Nampa/2486-W-Fallon-Loop-83651/home/199290451,IMLS,98968406,N,Y,43.5725873,-116.6108282
New Construction Plan,,Single Family Residential,The Hudson Plan,Nampa,ID,Q2C1DD,400990,3,2.0,Nampa,1574,,,238,255,,Active,,,https://www.redfin.com/ID/Nampa/Nampa/The-Hudson/home/195891564,Zillow,A347A4E6BF07,N,Y,43.6206238,-116.5078912
MLS Listing,,Single Family Residential,345 N Cranesbill Ave,Kuna,ID,83634,400990,3,2.0,Madrone Heights,1522,5096,2025,64,263,42,Active,,,https://www.redfin.com/ID/Kuna/345-N-Cranesbill-Ave-83634/home/199067342,IMLS,98967513,N,Y,43.491483,-116.439239
MLS Listing,,Single Family Residential,498 S Bobby Way,Kuna,ID,83634,400990,3,2.5,Sera Sole,1762,6229,2025,31,228,57,Active,,,https://www.redfin.com/ID/Kuna/498-S-Bobby-Way-83634/home/197666372,IMLS,98969856,N,Y,43.483972,-116.415354
MLS Listing,,Single Family Residential,7352 S Bungalow Ave,Meridian,ID,83642,400990,3,2.0,Whisper Meadows,1364,5749,2025,17,294,42,Active,,,https://www.redfin.com/ID/Meridian/7352-S-Bungalow-Ave-83642/home/199884529,IMLS,98970570,N,Y,43.537939,-116.41555
New Construction Plan,,Single Family Residential,Plan 1882 Plan,Nampa,ID,83687,400990,3,2.0,Nampa,1882,,,269,213,,Active,,,https://www.redfin.com/ID/Nampa/Nampa/Plan-1882/home/194972854,Zillow,B736180C2A84,N,Y,43.554183,-116.5140599
New Construction Plan,,Single Family Residential,Plan 1910 Plan,Nampa,ID,83687,400990,3,2.0,Nampa,1910,,,270,210,,Active,,,https://www.redfin.com/ID/Nampa/Nampa/Plan-1910/home/195474624,Zillow,9A18C03F30B8,N,Y,43.554183,-116.5140599
MLS Listing,,Single Family Residential,1748 W Unforgettable St,Meridian,ID,83642,400990,3,2.0,Whisper Meadows,1364,5967,2025,51,294,42,Active,,,https://www.redfin.com/ID/Meridian/1748-W-Unforgettable-St-83642/home/199245684,IMLS,98968589,N,Y,43.5390159,-116.4155374
MLS Listing,,Single Family Residential,10825 Rutland St,Caldwell,ID,83605,400990,3,2.5,Valencia Village,1851,3920,2025,46,217,50,Active,,,https://www.redfin.com/ID/Caldwell/10825-Rutland-St-83605/home/199431439,IMLS,98968762,N,Y,43.6561639,-116.6098404
MLS Listing,,Single Family Residential,2955 E Mossy Creek Dr,Kuna,ID,83634,400990,3,2.5,Ledgestone,1766,4399,2025,32,227,46,Active,,,https://www.redfin.com/ID/Kuna/2955-E-Mossy-Creek-Dr-83634/home/199645447,IMLS,98969750,N,Y,43.514521,-116.377308
MLS Listing,,Townhouse,2734 N Turnberry Way,Meridian,ID,83646,400000,3,2.0,Lake At Cherry,1508,5227,1996,31,265,125,Active,,,https://www.redfin.com/ID/Meridian/2734-N-Turnberry-Way-83646/home/106666363,IMLS,98969849,N,Y,43.6297207,-116.4388888
MLS Listing,,Vacant Land,7377 N Cavea Ln,Meridian,ID,83646,400000,,,Element Skye,,43560,,303,,250,Active,,,https://www.redfin.com/ID/Meridian/7377-N-Cavea-Ln-83646/home/184933792,IMLS,98939559,N,Y,43.671455,-116.413094
MLS Listing,,Single Family Residential,10194 Longtail Dr,Nampa,ID,83687,400000,3,2.0,Adams Ridge,1070,6098,2023,1,374,50,Active,January-17-2026 01:00 PM,January-17-2026 03:00 PM,https://www.redfin.com/ID/Nampa/10194-Longtail-Dr-83687/home/184664676,IMLS,98971741,N,Y,43.6298932,-116.5969072
MLS Listing,,Vacant Land,TBD 40 Acres,Mountain Home,ID,83647,400000,,,Mtn Home-Elmore - 1500,,1742400,,675,,,Active,,,https://www.redfin.com/ID/Mountain-Home/TBD-40-Acres-83647/home/179661800,IMLS,98902989,N,Y,43.1329504,-115.6911975
MLS Listing,,Condo/Co-op,3928 E Haystack St #109,Boise,ID,83716,400000,1,1.0,Harris Ranch Lofts,709,,2022,90,564,264,Active,,,https://www.redfin.com/ID/Boise/3928-E-Haystack-St-83716/unit-109/home/180852462,IMLS,98965163,N,Y,43.5732047,-116.1350639
MLS Listing,,Single Family Residential,15498 N Bonelli Ave,Nampa,ID,83651,400000,3,2.0,Eagle Stream,1621,6969,2018,1,247,33,Active,January-17-2026 12:00 PM,January-17-2026 02:00 PM,https://www.redfin.com/ID/Nampa/15498-N-Bonelli-Ave-83651/home/146785189,IMLS,98971843,N,Y,43.5973526,-116.6169173
