SALE TYPE,SOLD DATE,PROPERTY TYPE,ADDRESS,CITY,STATE OR PROVINCE,ZIP OR POSTAL CODE,PRICE,BEDS,BATHS,LOCATION,SQUARE FEET,LOT SIZE,YEAR BUILT,DAYS ON MARKET,$/SQUARE FEET,HOA/MONTH,STATUS,NEXT OPEN HOUSE START TIME,NEXT OPEN HOUSE END TIME,URL (SEE https://www.redfin.com/buy-a-home/comparative-market-analysis FOR INFO ON PRICING),SOURCE,MLS#,FAVORITE,INTERESTED,LATITUDE,LONGITUDE
"In accordance with local MLS rules, some MLS listings are not included in the download"
New Construction Plan,,Single Family Residential,Riviera Bonus Plan,Kuna,ID,83634,725000,4,3.5,Kuna,2982,,,129,243,,Active,,,https://www.redfin.com/ID/Kuna/Kuna/Riviera-Bonus/home/191595905,Zillow,FDE25790BAC3,N,Y,43.4874602,-116.3837244
New Construction Plan,,Single Family Residential,Vista Plan,Kuna,ID,83634,725000,4,3.0,Kuna,2528,,,663,287,,Active,,,https://www.redfin.com/ID/Kuna/Kuna/Vista/home/188913498,Zillow,43705C91229F,N,Y,43.4984828,-116.3307108
MLS Listing,,Single Family Residential,7446 S Glenridge View Dr,Boise,ID,83709-6834,725000,4,2.0,Hidden Valley Estates,2452,23086,1975,81,296,,Active,January-17-2026 11:00 AM,January-17-2026 01:00 PM,https://www.redfin.com/ID/Boise/7446-S-Glenridge-View-Dr-83709/home/106685068,IMLS,98965893,N,Y,43.535343,-116.3254071
MLS Listing,,Single Family Residential,438 E Elaine Ct,Nampa,ID,83686,725000,3,2.5,Henrys Place,2059,8712,2025,77,352,50,Active,January-17-2026 11:00 AM,January-17-2026 02:00 PM,https://www.redfin.com/ID/Nampa/438-W-Elaine-Ct-83686/home/191856369,IMLS,98966316,N,Y,43.5399,-116.579007
MLS Listing,,Single Family Residential,335 Bard Ave,Middleton,ID,83644,725000,4,3.0,Valhalla Country Estates,2246,22651,2024,150,323,42,Active,January-17-2026 01:00 PM,January-17-2026 04:00 PM,https://www.redfin.com/ID/Middleton/335-Bard-Ave-83644/home/176207000,IMLS,98958529,N,Y,43.7276057,-116.6171776
MLS Listing,,Single Family Residential,442 E Elaine Ct,Nampa,ID,83686,725000,3,2.5,Henrys Place,2059,7840,2025,169,352,50,Active,January-17-2026 11:00 AM,January-17-2026 02:00 PM,https://www.redfin.com/ID/Nampa/442-W-Elaine-Ct-83686/home/191856370,IMLS,98956584,N,Y,43.539672,-116.57905
New Construction Plan,,Single Family Residential,The Landonsboro Plan,Middleton,ID,83644,725000,3,2.0,Middleton,2113,,,595,343,,Active,,,https://www.redfin.com/ID/Middleton/Middleton/The-Landonsboro/home/191002725,Zillow,D4C7422C8617,N,Y,43.730959,-116.616703
MLS Listing,,Single Family Residential,12596 S Lenora Pl,Nampa,ID,83686,724999,3,2.5,Sagewater,2434,10149,2025,164,298,98,Active,January-17-2026 12:00 PM,January-17-2026 04:00 PM,https://www.redfin.com/ID/Nampa/12596-S-Lenora-Pl-83686/home/191857971,IMLS,98957086,N,Y,43.55536,-116.61377
New Construction Plan,,Single Family Residential,Grace Plan,Star,ID,83669,724900,4,2.5,Star,2285,,,76,317,,Active,,,https://www.redfin.com/ID/Star/Star/Grace/home/196506182,Zillow,C6C8C140F112,N,Y,43.70640182495117,-116.48538208007812
MLS Listing,,Single Family Residential,453 N Hiltonhead Way,Eagle,ID,83616-0000,724900,3,2.5,Sterling Heights,2306,7013,2025,107,314,100,Active,January-17-2026 09:00 AM,January-17-2026 04:30 PM,https://www.redfin.com/ID/Eagle/453-N-Hiltonhead-Way-83616/home/186474064,IMLS,98963430,N,Y,43.699159,-116.326331
New Construction Plan,,Single Family Residential,Residence 13 Plan,Eagle,ID,83616,724900,3,2.5,Eagle,2306,,,71,314,,Active,,,https://www.redfin.com/ID/Eagle/Eagle/Residence-13/home/195979898,Zillow,39684FABC44F,N,Y,43.7019,-116.324261
MLS Listing,,Single Family Residential,9440 S Egg Harbor Ave,Kuna,ID,83634,724900,6,4.5,Patagonia,3420,5749,2025,82,212,58,Active,January-17-2026 01:00 PM,January-17-2026 05:00 PM,https://www.redfin.com/ID/Kuna/9440-S-Egg-Harbor-Ave-83634/home/195947783,IMLS,98965824,N,Y,43.5188272,-116.3784038
MLS Listing,,Single Family Residential,Lot 13 Blk 07 E Strut Way,Boise,ID,83716,724900,3,2.5,Mayfield Springs,2284,8363,2026,151,317,100,Active,,,https://www.redfin.com/ID/Boise/Lot-13-Blk-07-E-Strut-WAY-Unknown/home/197225552,IMLS,98958647,N,Y,43.6150186,-116.2023137
MLS Listing,,Single Family Residential,10434 W Shumard Dr,Star,ID,83669,724900,4,2.5,Cherished Estates,2285,9496,2025,112,317,100,Active,,,https://www.redfin.com/ID/Star/10434-W-Shumard-Dr-83669/home/198269198,IMLS,98962943,N,Y,43.7042707,-116.4826238
New Construction Plan,,Single Family Residential,Residence 13 Plan,Eagle,ID,83616,724900,3,2.5,Eagle,2306,,,41,314,,Active,,,https://www.redfin.com/ID/Eagle/Eagle/Residence-13/home/199550620,Zillow,AE4E597AA129,N,Y,43.701066,-116.324067
MLS Listing,,Single Family Residential,1319 W Malbar St,Meridian,ID,83646,724800,4,3.0,Sagarra,2601,5140,2025,107,279,100,Active,,,https://www.redfin.com/ID/Meridian/1319-W-Malbar-ST-83646/home/196162671,IMLS,98963391,N,Y,43.659423828125,-116.40996551513672
MLS Listing,,Single Family Residential,1035 E Crescendo St,Meridian,ID,83642,724777,4,3.0,Pinnacle,2715,6011,2025,141,267,67,Active,January-16-2026 01:00 PM,January-16-2026 05:00 PM,https://www.redfin.com/ID/Meridian/1035-E-Crescendo-St-83642/home/197502948,IMLS,98959671,N,Y,43.549819,-116.38096
MLS Listing,,Single Family Residential,6725 S Kirsten Way #929,Eagle,ID,83629,724500,3,2.0,Avimor,1960,8276,2025,40,370,133,Active,,,https://www.redfin.com/ID/Eagle/6725-S-Kirsten-WAY-Unknown/unit-929/home/195948378,IMLS,98969255,N,Y,43.6954424,-116.3540138
MLS Listing,,Single Family Residential,3201 Raintree,Nampa,ID,83686,720000,5,3.0,Raintree Meadows,3377,8276,2001,7,213,30,Active,,,https://www.redfin.com/ID/Nampa/3201-Raintree-Dr-83686/home/117400983,IMLS,98971308,N,Y,43.5382971,-116.5889188
New Construction Plan,,Single Family Residential,The Amber Plan,Middleton,ID,83644,720000,3,2.5,Middleton,2127,,,595,339,,Active,,,https://www.redfin.com/ID/Middleton/Middleton/The-Amber/home/191002728,Zillow,C13A86817480,N,Y,43.730959,-116.616703
New Construction Plan,,Single Family Residential,Harley Plan,Eagle,ID,83616,719990,3,2.5,Eagle,2784,,,19,259,,Active,,,https://www.redfin.com/ID/Eagle/Eagle/Harley/home/198755832,Zillow,9F594A7C91B0,N,Y,43.704307,-116.3220628
New Construction Plan,,Single Family Residential,The Evergreen Plan,Meridian,ID,83646,719900,3,2.5,Meridian,2802,,,274,257,,Active,,,https://www.redfin.com/ID/Meridian/Meridian/The-Evergreen/home/195413599,Zillow,303C4B99A2E3,N,Y,43.65949249267578,-116.40731048583984
MLS Listing,,Single Family Residential,6731 N Magic Mallard Ave Unit Addison,Meridian,ID,83646,719900,4,4.5,Inspirado,3192,6751,2025,142,226,200,Active,January-17-2026 12:00 PM,January-17-2026 04:00 PM,https://www.redfin.com/ID/Meridian/6731-N-Magic-Mallard-Ave-83646/home/194183851,IMLS,98959537,N,Y,43.665975,-116.489126
MLS Listing,,Single Family Residential,7660 W Old School St Unit Rouge,Meridian,ID,83646,719900,5,2.5,Inspirado,2527,5749,2025,25,285,200,Active,,,https://www.redfin.com/ID/Meridian/7660-W-Old-School-St-83646/home/194183836,IMLS,98970216,N,Y,43.666604,-116.488981
MLS Listing,,Single Family Residential,1241 W Malbar St,Meridian,ID,83646,719900,3,2.5,Sagarra,2802,5096,2025,167,257,100,Active,,,https://www.redfin.com/ID/Meridian/1241-W-Malbar-ST-83646/home/196791243,IMLS,98956891,N,Y,43.6434944,-116.4360005
MLS Listing,,Single Family Residential,11343 W Perthshire Ln,Kuna,ID,83634,719880,3,2.0,Medallion Greens at Valor,1927,4617,2025,211,374,209,Active,,,https://www.redfin.com/ID/Kuna/11343-W-Perthshire-Ln-83634/home/195173543,IMLS,98951585,N,Y,43.499539,-116.323569
MLS Listing,,Single Family Residential,6402 E One Tree Pl,Eagle,ID,83629,719880,3,2.0,Avimor,1702,5183,2026,9,423,133,Active,,,https://www.redfin.com/ID/Eagle/6402-E-One-Tree-PL-83629/home/198546599,IMLS,98971066,N,Y,43.6954424,-116.3540138
MLS Listing,,Single Family Residential,2205 E Padstow St,Kuna,ID,83634,719880,3,2.5,Lugarno Terra,2203,8363,2026,6,327,58,Active,,,https://www.redfin.com/ID/Kuna/2205-E-Padstow-St-83634/home/197670422,IMLS,98971374,N,Y,43.50751,-116.386388
MLS Listing,,Single Family Residential,11375 W Perthshire Ln,Kuna,ID,83634,719880,3,2.0,Medallion Greens at Valor,1927,5009,2025,1,374,222,Active,,,https://www.redfin.com/ID/Kuna/11375-W-Perthshire-Ln-83634/home/194156228,IMLS,98971995,N,Y,43.499688,-116.324015
New Construction Plan,,Single Family Residential,Tamarack Plan,Kuna,ID,83634,719000,4,3.0,Kuna,2424,,,518,297,,Active,,,https://www.redfin.com/ID/Kuna/Kuna/Tamarack/home/192108651,Zillow,A2649308CF76,N,Y,43.505976,-116.397231
MLS Listing,,Single Family Residential,23919 Tyler Ln,Middleton,ID,83644,719000,3,2.0,Middleton - 1285,1544,47916,1995,66,466,,Active,,,https://www.redfin.com/ID/Middleton/23919-Tyler-Ln-83644/home/117165536,IMLS,98966751,N,Y,43.7198616,-116.5819892
New Construction Plan,,Single Family Residential,Residence 13 Plan,Nampa,ID,83686,718309,3,2.5,Nampa,2434,,,547,295,166,Active,,,https://www.redfin.com/ID/Nampa/Nampa/Residence-13/home/191720210,Zillow,F3846DCAB8FA,N,Y,43.55461120605469,-116.61355590820312
MLS Listing,,Townhouse,9685 W Sultana Dr,Garden City,ID,83714,718000,2,2.5,Ulmer Lane Townhome Sub,1805,4356,2008,98,398,342,Active,,,https://www.redfin.com/ID/Garden-City/9685-W-Sultana-Dr-83714/home/106676043,IMLS,98964335,N,Y,43.6738239,-116.3052395
New Construction Plan,,Single Family Residential,Tamarack Plan,Eagle,ID,83616,716000,4,3.0,Eagle,2424,,,8,295,,Active,,,https://www.redfin.com/ID/Eagle/Eagle/Tamarack/home/199981591,Zillow,E2BEC94B55C6,N,Y,43.75606918334961,-116.42547607421875
MLS Listing,,Single Family Residential,3315 E Englehart Dr,Meridian,ID,83642,715800,4,2.5,Skybreak,2061,6403,2025,3,347,68,Active,January-17-2026 01:00 PM,January-17-2026 04:00 PM,https://www.redfin.com/ID/Meridian/3315-E-Englehart-Dr-83642/home/194181120,IMLS,98971573,N,Y,43.5404529,-116.3532222
New Construction Plan,,Single Family Residential,The Birch RV Plan,Star,ID,83669,715000,4,3.0,Star,2228,,,393,321,,Active,,,https://www.redfin.com/ID/Star/Star/The-Birch-RV/home/193986129,Zillow,77E014AE98CE,N,Y,43.7187919,-116.4770601
MLS Listing,,Single Family Residential,435 E Elaine Ct,Nampa,ID,83686,715000,4,3.0,Henrys Place,2262,8276,2025,42,316,50,Active,January-17-2026 11:00 AM,January-17-2026 02:00 PM,https://www.redfin.com/ID/Nampa/435-W-Elaine-Ct-83686/home/191856373,IMLS,98969125,N,Y,43.539895,-116.577983
MLS Listing,,Single Family Residential,5408 W Yarnell St,Eagle,ID,83616,714990,5,2.5,Beaconwood,2700,14461,2025,53,265,74,Active,,,https://www.redfin.com/ID/Eagle/5408-W-Yarnell-St-83616/home/197671424,IMLS,98968346,N,Y,43.718187,-116.421119
MLS Listing,,Single Family Residential,5387 W Yarnell St,Eagle,ID,83616,714990,4,3.5,Beaconwood,2870,18643,2025,39,249,74,Active,,,https://www.redfin.com/ID/Eagle/5387-W-Yarnell-St-83616/home/197671430,IMLS,98969287,N,Y,43.717853,-116.420805
MLS Listing,,Single Family Residential,1002 Huntington Ct,Nampa,ID,83686,714900,4,2.0,Castleton Place,2137,17424,2025,73,335,17,Active,,,https://www.redfin.com/ID/Nampa/1002-Huntington-Ct-83686/home/116836980,IMLS,98966605,N,Y,43.523364,-116.560533
MLS Listing,,Single Family Residential,1217 W Eiger Dr,Nampa,ID,83686,714900,4,3.5,Summit Ridge (Canyon Co),3137,7840,2026,70,228,100,Active,,,https://www.redfin.com/ID/Nampa/1217-W-Eiger-Dr-83686/home/181153988,IMLS,98966917,N,Y,43.543949,-116.595193
MLS Listing,,Single Family Residential,6619 W Mattawa Dr,Meridian,ID,83646,714900,4,3.5,Lincoln Creek,2977,5488,2026,28,240,67,Active,,,https://www.redfin.com/ID/Meridian/6619-W-Mattawa-Dr-83646/home/197669771,IMLS,98970120,N,Y,43.646382,-116.4763079
MLS Listing,,Single Family Residential,4593 N Alameda Creek Ave,Meridian,ID,83646,714900,4,3.5,Lincoln Creek,2817,6751,2025,120,254,67,Active,,,https://www.redfin.com/ID/Meridian/4593-N-Alameda-Creek-Ave-83646/home/196037143,IMLS,98962055,N,Y,43.64667,-116.475667
MLS Listing,,Multi-Family (2-4 Unit),6341 Ruddsdale,Boise,ID,83709,714900,6,5.0,Running Springs,2821,,2019,1,253,,Active,,,https://www.redfin.com/ID/Boise/6341-S-Ruddsdale-Ave-83709/home/142667727,IMLS,98971968,N,Y,43.5451182,-116.3119194
MLS Listing,,Single Family Residential,7012 S Palatino Ave,Meridian,ID,83642,714800,4,3.0,Skybreak,2170,6316,2025,124,329,68,Active,January-17-2026 01:00 PM,January-17-2026 04:00 PM,https://www.redfin.com/ID/Meridian/7012-S-Palatino-Ave-83642/home/194181137,IMLS,98961623,N,Y,43.541199,-116.353407
MLS Listing,,Single Family Residential,9001 W Moonglade St,Star,ID,83669,714000,4,3.0,Heirloom Ridge,2667,9844,2025,6,268,75,Active,,,https://www.redfin.com/ID/Star/9001-W-Moonglade-St-83669/home/197665913,IMLS,98971410,N,Y,43.703056,-116.466187
New Construction Plan,,Single Family Residential,Riviera Plan,Kuna,ID,83634,713000,4,2.5,Kuna,2303,,,491,310,,Active,,,https://www.redfin.com/ID/Kuna/Kuna/Riviera/home/192515526,Zillow,EA017D5E460C,N,Y,43.505976,-116.397231
New Construction Plan,,Single Family Residential,Davenport Plan,Kuna,ID,83634,712000,3,2.5,Kuna,2203,,,518,323,,Active,,,https://www.redfin.com/ID/Kuna/Kuna/Davenport/home/192108657,Zillow,665FC61BD102,N,Y,43.505976,-116.397231
New Construction Plan,,Single Family Residential,Residence 15 Plan,Nampa,ID,83686,711702,3,3.5,Nampa,2567,,,547,277,166,Active,,,https://www.redfin.com/ID/Nampa/Nampa/Residence-15/home/191720212,Zillow,24BAE3FB1E80,N,Y,43.55461120605469,-116.61355590820312
New Construction Plan,,Single Family Residential,Harris Plan,Star,ID,83669,709990,3,2.5,Star,2456,,,326,289,,Active,,,https://www.redfin.com/ID/Star/Star/Harris/home/194836869,Zillow,179B74D88F9A,N,Y,43.709305,-116.4651452
New Construction Plan,,Single Family Residential,The Eldridge Plan,Meridian,ID,83646,709900,4,3.0,Meridian,2601,,,164,273,,Active,,,https://www.redfin.com/ID/Meridian/Meridian/The-Eldridge/home/195413768,Zillow,FB7E27B071F8,N,Y,43.65949249267578,-116.40731048583984
MLS Listing,,Single Family Residential,9701 W Snow Wolf Ln,Star,ID,83669,709900,3,2.0,Langtree,2318,6316,2026,14,306,110,Active,,,https://www.redfin.com/ID/Star/9701-W-Snow-Wolf-Ln-83669/home/197670365,IMLS,98970750,N,Y,43.706735,-116.474699
New Construction Plan,,Single Family Residential,Whimbrel Plan,Meridian,ID,83646,709900,3,2.0,Meridian,2544,,,45,279,,Active,,,https://www.redfin.com/ID/Meridian/Meridian/Whimbrel/home/199470541,Zillow,4B461766ABD9,N,Y,43.66474151611328,-116.4873275756836
MLS Listing,,Single Family Residential,5150 N Watersedge Ave,Garden City,ID,83714,709900,4,3.0,Meadow Creek (Boise),2530,8276,1993,3,281,150,Active,,,https://www.redfin.com/ID/Garden-City/5150-N-Watersedge-Ave-83714/home/106707356,IMLS,98971575,N,Y,43.667176,-116.2933618
MLS Listing,,Single Family Residential,2129 E Blakehurst St,Kuna,ID,83634,709880,4,2.5,Lugarno Terra,2303,8058,2025,65,308,58,Active,,,https://www.redfin.com/ID/Kuna/2129-E-Blakehurst-St-83634/home/197015278,IMLS,98967363,N,Y,43.506711,-116.387382
MLS Listing,,Single Family Residential,7026 S Palatino Ave,Meridian,ID,83642,709800,4,3.0,Skybreak,2170,6316,2025,31,327,68,Active,,,https://www.redfin.com/ID/Meridian/7026-S-Palatino-Ave-83642/home/194181136,IMLS,98969816,N,Y,43.541049,-116.353306
New Construction Plan,,Single Family Residential,Meadowlark Plan,Garden City,ID,83714,709000,4,2.0,Garden City,2103,,,51,337,250,Active,,,https://www.redfin.com/ID/Garden-City/Garden-City/Meadowlark/home/199321435,Zillow,18D3DD3B50D3,N,Y,43.79642105102539,-116.26443481445312
MLS Listing,,Single Family Residential,1342 W Grassland Ct,Middleton,ID,83644,709000,5,4.5,Meadows at West Highlands,3432,7884,2025,89,207,71,Active,,,https://www.redfin.com/ID/Middleton/1342-W-Grassland-Ct-83644/home/191859192,IMLS,98965184,N,Y,43.722351,-116.641157
MLS Listing,,Single Family Residential,3815 W Columbia Rd,Meridian,ID,83642,709000,5,2.0,Kuna - 1100,2832,39639,1959,20,250,,Active,,,https://www.redfin.com/ID/Meridian/3815-W-Columbia-Rd-83642/home/106801950,IMLS,98970399,N,Y,43.5318428,-116.4408311
New Construction Plan,,Single Family Residential,Reegan Plan,Star,ID,83669,708995,5,4.5,Star,3433,,,504,207,,Active,,,https://www.redfin.com/ID/Star/Star/Reegan/home/192295385,Zillow,5C537B318C00,N,Y,43.705203,-116.464754
MLS Listing,,Single Family Residential,5699 N Fairborn Ave,Meridian,ID,83646,708000,4,3.5,Bainbridge,2320,6534,2020,63,305,117,Active,,,https://www.redfin.com/ID/Meridian/5699-N-Fairborn-Ave-83646/home/172812327,IMLS,98967655,N,Y,43.6566605,-116.4357662
New Construction Plan,,Single Family Residential,Aberdeen Plan,Kuna,ID,83634,708000,4,3.0,Kuna,2211,,,277,320,,Active,,,https://www.redfin.com/ID/Kuna/Kuna/Aberdeen/home/192515523,Zillow,D828C7BE1D6C,N,Y,43.505976,-116.397231
New Construction Plan,,Single Family Residential,Messina Plan,Garden City,ID,83714,707000,3,2.0,Garden City,2202,,,108,321,250,Active,,,https://www.redfin.com/ID/Garden-City/Garden-City/Messina/home/198188005,Zillow,32B50074A728,N,Y,43.79642105102539,-116.26443481445312
New Construction Plan,,Single Family Residential,SuperHome Next Gen Plan,Nampa,ID,83687,706900,5,4.5,Nampa,3848,,,491,184,,Active,,,https://www.redfin.com/ID/Nampa/Nampa/SuperHome-Next-Gen/home/192520867,Zillow,937C2E1FFFB9,N,Y,43.634887,-116.565543
New Construction Plan,,Single Family Residential,Tanner Plan,Meridian,ID,83646,705995,4,3.5,Meridian,3141,,,513,225,,Active,,,https://www.redfin.com/ID/Meridian/Meridian/Tanner/home/192163323,Zillow,FDEC4ABEC548,N,Y,43.6501639,-116.464357
MLS Listing,,Single Family Residential,18131 N Phlox Way,Nampa,ID,83687,705900,3,3.0,Hartland,2438,9147,2022,97,290,33,Active,January-17-2026 12:00 PM,January-17-2026 03:00 PM,https://www.redfin.com/ID/Nampa/18131-N-Phlox-Way-83687/home/176206364,IMLS,98964494,N,Y,43.6358814,-116.5711689
New Construction Plan,,Single Family Residential,Somerset Plan,Eagle,ID,83616,702000,4,3.0,Eagle,2310,,,8,304,,Active,,,https://www.redfin.com/ID/Eagle/Eagle/Somerset/home/199981590,Zillow,74969F013FA8,N,Y,43.75606918334961,-116.42547607421875
New Construction Plan,,Single Family Residential,Olympia Plan,Kuna,ID,83634,700000,3,2.5,Kuna,2170,,,7,323,,Active,,,https://www.redfin.com/ID/Kuna/Kuna/Olympia/home/199991619,Zillow,4D64D0E62DD9,N,Y,43.5177105,-116.3782585
MLS Listing,,Vacant Land,1963 S Satellite Way,Boise,ID,83712,700000,,,Boulder Point,,16727,,448,,83,Active,,,https://www.redfin.com/ID/Boise/1963-S-Satellite-Way-83712/home/173966733,IMLS,98927648,N,Y,43.5848609,-116.143106
MLS Listing,,Single Family Residential,2251 S Sumac St,Boise,ID,83706,700000,4,2.0,Veazey Park Add,3074,13068,1946,21,228,,Active,January-18-2026 01:00 PM,January-18-2026 03:00 PM,https://www.redfin.com/ID/Boise/2251-S-Sumac-St-83706/home/106783704,IMLS,98970325,N,Y,43.5830149,-116.1816743
New Construction Plan,,Single Family Residential,The Hudson Plan,Kuna,ID,83634,700000,3,2.5,Kuna,2660,,,7,263,,Active,,,https://www.redfin.com/ID/Kuna/Kuna/The-Hudson/home/199991618,Zillow,8497F689BB9C,N,Y,43.5177105,-116.3782585
MLS Listing,,Vacant Land,8560 N Lost Sage Ln,Garden City,ID,83714,700000,,,Boise NW - 0800,,252648,,76,,,Active,,,https://www.redfin.com/ID/Garden-City/8560-N-Lost-Sage-Ln-83714/home/106775335,IMLS,98966384,N,Y,43.687179,-116.27199
MLS Listing,,Single Family Residential,9389 W Wildbranch Dr,Star,ID,83669,700000,3,3.5,Heron River,2722,7623,2015,17,257,147,Active,January-17-2026 01:00 PM,January-17-2026 03:00 PM,https://www.redfin.com/ID/Star/9389-W-Wildbranch-Dr-83669/home/106681297,IMLS,98970515,N,Y,43.6891769,-116.4707861
MLS Listing,,Single Family Residential,6414 W Randolph Dr,Boise,ID,83709-2162,700000,3,3.0,Randolph-Robert,2676,10018,1950,30,262,,Active,,,https://www.redfin.com/ID/Boise/6414-W-Randolph-Dr-83709/home/106705323,IMLS,98969901,N,Y,43.595392,-116.2616599
New Construction Plan,,Single Family Residential,Cascade Plan,Kuna,ID,83634,700000,4,3.0,Kuna,2575,,,7,272,,Active,,,https://www.redfin.com/ID/Kuna/Kuna/Cascade/home/199991621,Zillow,6B5EE0E48DAF,N,Y,43.5177105,-116.3782585
MLS Listing,,Vacant Land,213 E 40th St,Garden City,ID,83714-6350,700000,,,Garden City - 0700,,30056,,95,,,Active,,,https://www.redfin.com/ID/Garden-City/213-E-40th-St-83714/home/106719070,IMLS,98964583,N,Y,43.6303721,-116.2448838
MLS Listing,,Vacant Land,11041 Moss Ln,Nampa,ID,83651,700000,,,Nampa NW (51) - 1270,,54014,,295,,,Active,,,https://www.redfin.com/ID/Nampa/11041-Moss-Ln-83651/home/195181674,IMLS,98940514,N,Y,43.611923,-116.613633
New Construction Plan,,Single Family Residential,Riverton Bonus Plan,Eagle,ID,83616,700000,3,2.5,Eagle,2312,,,111,303,,Active,,,https://www.redfin.com/ID/Eagle/Eagle/Riverton-Bonus/home/198294506,Zillow,D118CC00227B,N,Y,43.695498,-116.440919
MLS Listing,,Single Family Residential,12530 S Lenora Pl,Nampa,ID,83686,699999,3,2.5,Sagewater,2434,8494,2025,24,288,98,Active,January-17-2026 12:00 PM,January-17-2026 04:00 PM,https://www.redfin.com/ID/Nampa/12530-S-Lenora-Pl-83686/home/191857976,IMLS,98970284,N,Y,43.554764,-116.613761
MLS Listing,,Vacant Land,525 E Greenhurst Rd,Nampa,ID,83651,699999,,,Nampa South (86) - 1260,,126367,,370,,,Active,,,https://www.redfin.com/ID/Nampa/525-E-Greenhurst-Rd-83686/home/117449593,IMLS,98932931,N,Y,43.5465061,-116.5656728
MLS Listing,,Single Family Residential,664 E Lockhart St,Meridian,ID,83646,699990,4,2.5,Friendship Subdivision,2914,5706,2025,57,240,77,Active,,,https://www.redfin.com/ID/Meridian/664-E-Lockhart-St-83646/home/195505198,IMLS,98967998,N,Y,43.6608102,-116.3851829
MLS Listing,,Single Family Residential,1375 White Cliffs St,Middleton,ID,83644,699990,4,3.5,Stonehaven,2922,11804,2025,7,240,54,Active,January-17-2026 11:00 AM,January-17-2026 04:00 PM,https://www.redfin.com/ID/Middleton/1375-White-Cliffs-St-83644/home/191859260,IMLS,98971324,N,Y,43.713804,-116.650069
MLS Listing,,Single Family Residential,7351 W Eagle Grove St,Boise,ID,83709,699990,5,2.5,Locale,2700,9321,2025,186,259,100,Active,,,https://www.redfin.com/ID/Boise/7351-W-Eagle-Grove-St-83709/home/196399538,IMLS,98954484,N,Y,43.544396,-116.272694
MLS Listing,,Single Family Residential,846 N Falling Water Way,Eagle,ID,83616,699990,3,2.0,Hevostila Estates,2153,8102,2025,7,325,75,Active,,,https://www.redfin.com/ID/Eagle/846-N-Falling-Water-Way-83616/home/197486941,IMLS,98971336,N,Y,43.7043409,-116.3214572
MLS Listing,,Single Family Residential,12515 W Arabian Dr,Boise,ID,83709,699990,3,3.0,Sun Creek,2255,7492,2023,1,310,60,Active,January-17-2026 01:00 PM,January-17-2026 03:00 PM,https://www.redfin.com/ID/Boise/12515-W-Arabian-Dr-83709/home/190738868,IMLS,98971956,N,Y,43.5631301,-116.3382623
MLS Listing,,Single Family Residential,1008 N 21st St,Boise,ID,83702,699990,4,2.0,Ellis Addition,1498,6098,1941,29,467,,Active,January-17-2026 01:00 PM,January-17-2026 04:00 PM,https://www.redfin.com/ID/Boise/1008-N-21st-St-83702/home/106659464,IMLS,98969989,N,Y,43.6295712,-116.2142808
New Construction Plan,,Single Family Residential,Darius Plan,Middleton,ID,83644,699990,4,3.5,Middleton,2920,,,25,240,,Active,,,https://www.redfin.com/ID/Middleton/Middleton/Darius/home/199255724,Zillow,690D6D00B84D,N,Y,43.714351,-116.646159
New Construction Plan,,Single Family Residential,The Hemlock Plan,Lrbdqa Meridian,ID,83646,699900,3,2.5,Meridian,2546,,,164,275,,Active,,,https://www.redfin.com/ID/Lrbdqa-Meridian/Meridian/The-Hemlock/home/196794604,Zillow,C1933E5ADBF4,N,Y,43.65949249267578,-116.40731048583984
MLS Listing,,Single Family Residential,1961 E Mainacht St,Meridian,ID,83642,699900,4,2.5,Lavender Heights,2595,5009,2026,51,270,62,Active,,,https://www.redfin.com/ID/Meridian/1961-E-Mainacht-St-83642/home/186478096,IMLS,98968629,N,Y,43.5488019,-116.3696529
New Construction Plan,,Single Family Residential,Lincoln XL Plan,Mayfield,ID,83716,699900,4,2.5,Mayfield,2973,,,7,235,,Active,,,https://www.redfin.com/ID/Mayfield/Mayfield/Lincoln-XL/home/199992728,Zillow,19CC522260F7,N,Y,43.3691462,-115.9610743
MLS Listing,,Single Family Residential,375 S Strut Way,Boise,ID,83716,699900,4,2.5,Mayfield Springs,2973,7187,2026,138,235,100,Active,January-17-2026 12:00 PM,January-17-2026 04:00 PM,https://www.redfin.com/ID/Boise/375-S-Strut-WAY-Unknown/home/197556563,IMLS,98960065,N,Y,43.6150186,-116.2023137
New Construction Plan,,Single Family Residential,The Rogue Plan,Meridian,ID,83646,699900,3,2.5,Meridian,2527,,,276,277,,Active,,,https://www.redfin.com/ID/Meridian/Meridian/The-Rogue/home/195413615,Zillow,B8EE9F94EA7E,N,Y,43.65949249267578,-116.40731048583984
MLS Listing,,Single Family Residential,5790 N Wellspring Way,Boise,ID,83713,699900,3,2.5,Hobble Creek,2552,9452,1995,67,274,29,Active,,,https://www.redfin.com/ID/Boise/5790-N-Wellspring-Way-83713/home/106681642,IMLS,98967121,N,Y,43.6572458,-116.3495276
New Construction Plan,,Single Family Residential,Monterey Plan,Meridian,ID,83646,699900,3,2.5,Meridian,2315,,,45,302,,Active,,,https://www.redfin.com/ID/Meridian/Meridian/Monterey/home/199470540,Zillow,4C5D69C89B22,N,Y,43.66474151611328,-116.4873275756836
MLS Listing,,Single Family Residential,1261 E Andes Dr,Kuna,ID,83634,699900,4,3.5,Patagonia,2575,7710,2025,142,272,58,Active,January-17-2026 12:00 PM,January-17-2026 04:45 PM,https://www.redfin.com/ID/Kuna/1261-E-Andes-Dr-83634/home/197484948,IMLS,98959603,N,Y,43.5177105,-116.3782585
MLS Listing,,Single Family Residential,5701 W Cruzen St,Boise,ID,83706,699900,3,1.5,Cruzen Mtn View,2060,10890,1950,283,340,,Active,,,https://www.redfin.com/ID/Boise/5701-W-Cruzen-St-83706/home/106680874,IMLS,98942029,N,Y,43.6214837,-116.2527324
MLS Listing,,Vacant Land,L11 B3 N Alworth St,Garden City,ID,83714,699900,,,Randall Acres S,,18295,,7,,,Active,,,https://www.redfin.com/ID/Garden-City/L11-B3-N-Alworth-St-83714/home/199987851,IMLS,98971255,N,Y,43.6437766,-116.2602006
MLS Listing,,Single Family Residential,1156 W Eiger Dr,Nampa,ID,83686,699900,4,3.5,Summit Ridge (Canyon Co),2977,6534,2026,70,235,100,Active,,,https://www.redfin.com/ID/Nampa/1156-W-Eiger-Dr-83686/home/181153952,IMLS,98966887,N,Y,43.5444036,-116.59444
MLS Listing,,Single Family Residential,2360 S Pelion Way,Nampa,ID,83686,699900,4,2.5,Summit Ridge (Canyon Co),2241,10454,2022,1,312,100,Active,January-17-2026 11:00 AM,January-17-2026 01:00 PM,https://www.redfin.com/ID/Nampa/2360-S-Pelion-Way-83686/home/179307090,IMLS,98971967,N,Y,43.5456922,-116.5936437
MLS Listing,,Single Family Residential,1009 W Malbar St,Meridian,ID,83646,699900,3,2.5,Sagarra,2527,5096,2025,165,277,100,Active,,,https://www.redfin.com/ID/Meridian/1009-W-Malbar-ST-83646/home/196815994,IMLS,98956998,N,Y,43.65941619873047,-116.4059829711914
MLS Listing,,Single Family Residential,6732 N Magic Mallard Ave Unit Molalla Bonus,Meridian,ID,83646,699900,3,3.5,Inspirado,2562,5706,2025,25,273,200,Active,,,https://www.redfin.com/ID/Meridian/6732-N-Magic-Mallard-Ave-83646/home/194183847,IMLS,98970213,N,Y,43.6660169,-116.488524
MLS Listing,,Single Family Residential,1259 W Malbar St,Meridian,ID,83646,699900,3,2.5,Sagarra,2546,5096,2025,167,275,100,Active,,,https://www.redfin.com/ID/Meridian/1259-W-Malbar-ST-83646/home/196791156,IMLS,98956886,N,Y,43.6434944,-116.4360005
MLS Listing,,Single Family Residential,11327 W Gila,Kuna,ID,83634,699900,5,2.5,Desert View Est,2271,44431,1975,76,308,,Active,,,https://www.redfin.com/ID/Kuna/11327-W-Gila-Dr-83634/home/106731258,IMLS,98966436,N,Y,43.4817571,-116.3239815
MLS Listing,,Single Family Residential,898 N Nicklaus Ln,Eagle,ID,83616,699899,4,3.5,Eagle Hills Eas,3263,9583,1989,80,214,25,Active,January-18-2026 01:00 PM,January-18-2026 03:00 PM,https://www.redfin.com/ID/Eagle/898-N-Nicklaus-Ln-83616/home/106655049,IMLS,98965970,N,Y,43.7021466,-116.3319645
New Construction Plan,,Single Family Residential,Somerset Plan,Kuna,ID,83634,699880,4,3.0,Kuna,2310,,,173,303,,Active,,,https://www.redfin.com/ID/Kuna/Kuna/Somerset/home/191595900,Zillow,7A5B736CEC65,N,Y,43.4874602,-116.3837244
MLS Listing,,Single Family Residential,333 Mcneil Ave,Middleton,ID,83644,699800,3,2.0,Middleton - 1285,2029,5662,2025,162,345,,Active,,,https://www.redfin.com/ID/Middleton/333-Mcneil-AVE-Unknown/home/196909211,IMLS,98957356,N,Y,43.7068281,-116.6201357
MLS Listing,,Condo/Co-op,611 S 8th St #401,Boise,ID,83702,699500,2,2.0,Cultural District Condominiums,1254,,2017,59,558,534,Active,,,https://www.redfin.com/ID/Boise/611-S-8th-St-83702/unit-401/home/142669581,IMLS,98967808,N,Y,43.6115354,-116.2082004
MLS Listing,,Single Family Residential,7736 W Bayhill St,Boise,ID,83704,699500,5,4.0,Bayhill Springs,2763,9583,1992,32,253,32,Active,,,https://www.redfin.com/ID/Boise/7736-W-Bayhill-St-83704/home/106736575,IMLS,98969794,N,Y,43.6370729,-116.2780321
MLS Listing,,Single Family Residential,1962 N Argyll Ave,Middleton,ID,83644,699000,4,2.5,Estates at West Highlands,2767,10454,2023,10,253,60,Active,,,https://www.redfin.com/ID/Middleton/1962-N-Argyll-Ave-83644/home/185390560,IMLS,98970979,N,Y,43.7268933,-116.6313774
New Construction Plan,,Single Family Residential,The Aspen RV Plan,Star,ID,83669,699000,3,2.0,Star,2001,,,393,349,,Active,,,https://www.redfin.com/ID/Star/Star/The-Aspen-RV/home/193986138,Zillow,BB0B27D4D638,N,Y,43.7187919,-116.4770601
New Construction Plan,,Single Family Residential,The Thomas Plan,Star,ID,83669,699000,3,3.0,Star,2929,,,393,239,,Active,,,https://www.redfin.com/ID/Star/Star/The-Thomas/home/193986141,Zillow,E52F3496553F,N,Y,43.7187919,-116.4770601
MLS Listing,,Single Family Residential,5286 W Torana Dr,Meridian,ID,83646,699000,3,2.0,The Oaks,2403,9583,2016,1,291,62,Active,January-24-2026 02:00 PM,January-24-2026 04:00 PM,https://www.redfin.com/ID/Meridian/5286-W-Torana-Dr-83646/home/109559583,IMLS,98971912,N,Y,43.6461405,-116.4597664
MLS Listing,,Single Family Residential,4629 E Coldwater Dr,Nampa,ID,83687,699000,5,3.0,Silver Star,2733,10149,2025,1,256,92,Active,,,https://www.redfin.com/ID/Nampa/4629-E-Coldwater-Dr-83687/home/196888263,IMLS,98971810,N,Y,43.626985,-116.485599
MLS Listing,,Single Family Residential,1754 N Peakhurt,Kuna,ID,83634,699000,3,2.0,Lugarno Terra,2059,8712,2020,46,339,50,Active,,,https://www.redfin.com/ID/Kuna/1754-N-Peakhurt-Ave-83634/home/172682548,IMLS,98968776,N,Y,43.5042029,-116.3847713
MLS Listing,,Single Family Residential,5147 N Mallorca Way,Meridian,ID,83646,699000,3,3.0,The Oaks North,2687,15420,2021,27,260,62,Active,,,https://www.redfin.com/ID/Meridian/5147-N-Mallorca-Way-83646/home/173226862,IMLS,98970177,N,Y,43.6516217,-116.4689262
New Construction Plan,,Single Family Residential,Residence 12 Plan,Eagle,ID,83616,699000,3,2.5,Eagle,2453,,,41,285,,Active,,,https://www.redfin.com/ID/Eagle/Eagle/Residence-12/home/199550621,Zillow,49F791C13BEF,N,Y,43.701066,-116.324067
MLS Listing,,Single Family Residential,520 S Scott St,Boise,ID,83705-1817,699000,4,3.5,Palmer Sub,3119,10890,1949,85,224,,Active,January-17-2026 12:00 PM,January-17-2026 03:00 PM,https://www.redfin.com/ID/Boise/520-S-Scott-St-83705/home/106663816,IMLS,98965593,N,Y,43.5988747,-116.2494799
MLS Listing,,Single Family Residential,2297 N Chandra Way,Meridian,ID,83642,698990,3,3.0,Packard Sub,2717,11456,2001,34,257,50,Active,,,https://www.redfin.com/ID/Meridian/2297-N-Chandra-Way-83646/home/106724782,IMLS,98969676,N,Y,43.6256595,-116.3604106
New Construction Plan,,Single Family Residential,Turnberry Plan,Garden City,ID,83714,698000,4,2.0,Garden City,2002,,,108,349,250,Active,,,https://www.redfin.com/ID/Garden-City/Garden-City/Turnberry/home/191925813,Zillow,D53C43B7C616,N,Y,43.79642105102539,-116.26443481445312
New Construction Home,,Single Family Residential,8906 W Teratai St,Star,ID,83669,697844,3,2.5,Star,2317,,2025,37,301,,Active,,,https://www.redfin.com/ID/Star/8906-W-Teratai-St-83669/home/197670109,Zillow,0573EB50D5A0,N,Y,43.7134711,-116.4914192
MLS Listing,,Single Family Residential,5877 W Sprig Dr,Meridian,ID,83646,696990,3,3.5,Prescott Ridge,2917,8276,2026,48,239,67,Active,,,https://www.redfin.com/ID/Meridian/5877-W-Sprig-DR-Unknown/home/199418169,IMLS,98968711,N,Y,43.6421012878418,-116.40879821777344
New Construction Plan,,Single Family Residential,Wild Horse Plan,Garden City,ID,83714,695200,4,2.5,Garden City,2165,,,161,321,133,Active,,,https://www.redfin.com/ID/Garden-City/Garden-City/Wild-Horse/home/196945747,Zillow,F7A3EC241A20,N,Y,43.7730915,-116.2633678
MLS Listing,,Townhouse,3212 S Barnside Way,Boise,ID,83716,695000,3,2.5,The BLVD at Harris Ranch,2627,3005,2021,7,265,241,Active,January-18-2026 02:00 PM,January-18-2026 04:00 PM,https://www.redfin.com/ID/Boise/3212-S-Barnside-Way-83716/home/175912063,IMLS,98971245,N,Y,43.572595,-116.131902
MLS Listing,,Single Family Residential,11400 W Helenium Dr,Star,ID,83669,695000,4,3.0,Hope Springs,2765,5837,2022,141,251,77,Active,,,https://www.redfin.com/ID/Star/11400-W-Helenium-Dr-83669/home/182011227,IMLS,98959701,N,Y,43.715199,-116.4958982
MLS Listing,,Vacant Land,3596 N Lighter Ave,Eagle,ID,83616,695000,,,Terra View,,13939,,30,,233,Active,,,https://www.redfin.com/ID/Eagle/3596-N-Lighter-AVE-83616/home/199701673,IMLS,98969948,N,Y,43.7736996,-116.3805805
MLS Listing,,Single Family Residential,2452 W Astonte Dr,Meridian,ID,83646,695000,4,3.0,Bridgetower,2786,11325,2006,43,249,75,Active,,,https://www.redfin.com/ID/Meridian/2452-W-Astonte-Dr-83646/home/106708957,IMLS,98969023,N,Y,43.6461519,-116.4243478
MLS Listing,,Single Family Residential,1685 N Ryde Ave,Kuna,ID,83634,695000,4,2.5,Lugarno Terra,2541,12196,2021,15,274,58,Active,January-24-2026 12:00 PM,January-24-2026 03:00 PM,https://www.redfin.com/ID/Kuna/1685-N-Ryde-Ave-83634/home/172682622,IMLS,98970358,N,Y,43.5033324,-116.389002
MLS Listing,,Single Family Residential,1406 W Crystal Falls Ave,Nampa,ID,83651,694999,4,3.0,Granite Basin,3329,8712,2012,158,209,29,Active,,,https://www.redfin.com/ID/Nampa/1406-W-Crystal-Falls-Ave-83651/home/117053650,IMLS,98957866,N,Y,43.5775213,-116.5988379
MLS Listing,,Single Family Residential,6153 N Senita Hills Ave,Meridian,ID,83646,694990,4,2.5,Friendship Subdivision,2914,4965,2025,38,239,77,Active,,,https://www.redfin.com/ID/Meridian/6153-N-Senita-Hills-Ave-83646/home/195505421,IMLS,98969357,N,Y,43.6605314,-116.3847822
New Construction Plan,,Single Family Residential,Eagle Plan,Star,ID,83669,694990,3,3.0,Star,2246,,,1,309,,Active,,,https://www.redfin.com/ID/Star/Star/Eagle/home/200095790,Zillow,1E8844A23449,N,Y,43.6904462,-116.5083684
MLS Listing,,Single Family Residential,12450 W Meliora Ln,Star,ID,83669,694990,3,3.0,Cranefield,2246,11804,2025,134,309,67,Active,January-16-2026 10:00 AM,January-16-2026 05:00 PM,https://www.redfin.com/ID/Star/12450-W-Meliora-Ln-83669/home/194180181,IMLS,98960477,N,Y,43.686929,-116.509275
New Construction Plan,,Single Family Residential,The Fremont Plan,Meridian,ID,83646,694900,4,2.5,Meridian,3226,,,71,215,200,Active,,,https://www.redfin.com/ID/Meridian/Meridian/The-Fremont/home/198916812,Zillow,04408821026E,N,Y,43.66611862182617,-116.49024200439453
New Construction Home,,Single Family Residential,6749 N Wonder Ave,Meridian,ID,83646,694900,4,2.5,Meridian,3226,5500,2025,162,215,200,Active,,,https://www.redfin.com/ID/Meridian/6749-N-Wonder-AVE-83646/home/196254778,Zillow,E534802311C6,N,Y,43.665340423583984,-116.49446868896484
New Construction Plan,,Single Family Residential,The Owyhee RV Plan,Meridian,ID,83642,694900,5,3.0,Meridian,2915,,,355,238,44,Active,,,https://www.redfin.com/ID/Meridian/Meridian/The-Owyhee-RV/home/194218614,Zillow,37DFAAE2007F,N,Y,43.549445,-116.42894
MLS Listing,,Single Family Residential,15408 War Eagle Rd,Murphy,ID,83650,694900,3,2.0,Eagle View Sub,1512,217364,2004,218,460,40,Active,,,https://www.redfin.com/ID/Murphy/15408-War-Eagle-Rd-83650/home/106627450,IMLS,98950691,N,Y,43.263306,-116.5736386
MLS Listing,,Single Family Residential,1190 NW Bluegrass Crk,Mountain Home,ID,83647,694900,5,2.5,Oakleaf Sub (Mt. Home),3174,45171,2003,172,219,,Active,,,https://www.redfin.com/ID/Mountain-Home/1190-NW-Bluegrass-Cir-83647/home/145176460,IMLS,98956137,N,Y,43.161737,-115.7210489
New Construction Plan,,Single Family Residential,Clearwater Plan,Garden City,ID,83714,694500,3,2.0,Garden City,1960,,,161,354,133,Active,,,https://www.redfin.com/ID/Garden-City/Garden-City/Clearwater/home/196945729,Zillow,9C801D87E452,N,Y,43.7730915,-116.2633678
MLS Listing,,Single Family Residential,2005 N Spring Creek Ave,Middleton,ID,83644,694000,5,4.5,Meadows at West Highlands,3432,8581,2025,62,202,71,Active,January-17-2026 11:00 AM,January-17-2026 04:00 PM,https://www.redfin.com/ID/Middleton/2005-N-Spring-Creek-Ave-83644/home/191859203,IMLS,98967711,N,Y,43.721208,-116.640624
MLS Listing,,Single Family Residential,15249 Steel Cloud Ave,Caldwell,ID,83607,694000,4,3.5,Passero Ridge,3135,10410,2025,47,221,83,Active,,,https://www.redfin.com/ID/Caldwell/15249-Steel-Cloud-Ave-83607/home/191858287,IMLS,98968737,N,Y,43.593338,-116.685834
New Construction Plan,,Single Family Residential,Symphony Plan,Eagle,ID,83616,692900,4,4.0,Eagle,2972,,,106,233,,Active,,,https://www.redfin.com/ID/Eagle/Eagle/Symphony/home/198406182,Zillow,E52FD7A00E02,N,Y,43.751312255859375,-116.42604064941406
New Construction Plan,,Single Family Residential,Somerset Plan,Kuna,ID,83634,691000,4,3.0,Kuna,2301,,,603,300,,Active,,,https://www.redfin.com/ID/Kuna/Kuna/Somerset/home/189605902,Zillow,0A24F77FE10C,N,Y,43.4984828,-116.3307108
MLS Listing,,Multi-Family (2-4 Unit),4044 W Ski Jump Ln,Meridian,ID,83642,690000,6,5.0,Meridian NW - 1030,3556,,2021,296,194,338,Active,,,https://www.redfin.com/ID/Meridian/4044-W-Ski-Jump-Ln-83642/home/175916109,IMLS,98940446,N,Y,43.6068799,-116.4440482
MLS Listing,,Single Family Residential,6558 S Sunfish Ave,Boise,ID,83709,689990,5,2.5,Locale,2700,10193,2025,64,256,100,Active,,,https://www.redfin.com/ID/Boise/6558-S-Sunfish-Ave-83709/home/197670296,IMLS,98967524,N,Y,43.543067,-116.27158
New Construction Plan,,Single Family Residential,Bradford Plan,Meridian,ID,83646,689990,4,2.5,Meridian,2920,,,217,236,,Active,,,https://www.redfin.com/ID/Meridian/Meridian/Bradford/home/195220453,Zillow,BC93C4F182F1,N,Y,43.6599772,-116.3847839
MLS Listing,,Single Family Residential,6050 N Torva Ave,Meridian,ID,83646,689990,4,2.5,Friendship Subdivision,2927,4965,2025,38,236,77,Active,,,https://www.redfin.com/ID/Meridian/6050-N-Torva-Ave-83646/home/196129960,IMLS,98969362,N,Y,43.6597336,-116.3861797
MLS Listing,,Single Family Residential,10880 W Cruden Bay Ln,Kuna,ID,83634,689900,3,2.5,Medallion at Valor,2125,7405,2026,85,325,169,Active,January-16-2026 12:00 PM,January-16-2026 05:00 PM,https://www.redfin.com/ID/Kuna/10880-W-Cruden-Bay-Ln-83634/home/197668571,IMLS,98965611,N,Y,43.500681,-116.31768
MLS Listing,,Single Family Residential,1268 E Andes Dr,Kuna,ID,83634,689900,4,2.5,Patagonia,2602,5575,2025,224,265,58,Active,January-17-2026 12:00 PM,January-17-2026 04:30 PM,https://www.redfin.com/ID/Kuna/1268-E-Andes-Dr-83634/home/196007802,IMLS,98949990,N,Y,43.5181585,-116.3780979
MLS Listing,,Single Family Residential,868 W Grassland St,Middleton,ID,83644,689900,4,3.0,Meadows at West Highlands,2311,10454,2021,77,299,71,Active,January-17-2026 12:00 PM,January-17-2026 03:00 PM,https://www.redfin.com/ID/Middleton/868-W-Grassland-St-83644/home/176206471,IMLS,98966002,N,Y,43.7225926,-116.6364244
MLS Listing,,Single Family Residential,11842 W Tioga St,Boise,ID,83709,689900,5,4.5,Pepperwood Esta,3328,23043,1979,114,207,,Active,,,https://www.redfin.com/ID/Boise/11842-W-Tioga-St-83709/home/106698860,IMLS,98962666,N,Y,43.578657,-116.330004
MLS Listing,,Single Family Residential,430 W Millstone St,Middleton,ID,83644,689900,4,2.0,The Mill at Middleton,2390,8145,2026,2,289,67,Active,January-18-2026 11:30 AM,January-18-2026 02:30 PM,https://www.redfin.com/ID/Middleton/430-W-Millstone-ST-83644/home/200046025,IMLS,98971653,N,Y,43.7068281,-116.6201357
New Construction Home,,Single Family Residential,9909 W Sunchaser St,Star,ID,83669,689400,4,3.0,Star,2228,,2024,388,309,,Active,,,https://www.redfin.com/ID/Star/9909-W-Sunchaser-St-83669/home/184648425,Zillow,5D22D0029D11,N,Y,43.7187919,-116.4770601
MLS Listing,,Vacant Land,tbd Merchant Way,Nampa,ID,83687,689206,,,Nampa NE (87) - 1250,,25526,,126,,,Active,,,https://www.redfin.com/ID/Nampa/TBD-N-Merchant-Way-83687/home/143183547,IMLS,98961394,N,Y,43.6189362,-116.5346883
MLS Listing,,Single Family Residential,5321 W River Oaks Dr,Meridian,ID,83646,689000,4,3.0,The Oaks North,2667,9060,2025,7,258,63,Active,January-17-2026 11:00 AM,January-17-2026 04:00 PM,https://www.redfin.com/ID/Meridian/5321-W-River-Oaks-Dr-83646/home/186473471,IMLS,98971316,N,Y,43.6562666,-116.4595569
MLS Listing,,Single Family Residential,5641 W Milano Dr,Meridian,ID,83646,689000,4,3.0,The Oaks North,2473,9365,2025,82,279,65,Active,January-17-2026 11:00 AM,January-17-2026 04:00 PM,https://www.redfin.com/ID/Meridian/5641-W-Milano-Dr-83646/home/175924785,IMLS,98965833,N,Y,43.6505251,-116.4641474
MLS Listing,,Single Family Residential,1156 W Switchgrass Dr,Meridian,ID,83642,689000,4,3.0,Paloma Ridge,2667,11194,2025,5,258,75,Active,,,https://www.redfin.com/ID/Meridian/1156-W-Switchgrass-Dr-83642/home/200003655,IMLS,98971437,N,Y,43.527057,-116.408256
MLS Listing,,Single Family Residential,4684 E Coldwater Dr,Nampa,ID,83687,689000,4,3.0,Silver Star,3054,10890,2025,32,226,92,Active,,,https://www.redfin.com/ID/Nampa/4684-E-Coldwater-Dr-83687/home/186219212,IMLS,98969780,N,Y,43.627558,-116.486632
MLS Listing,,Single Family Residential,9924 W Sunchaser St,Star,ID,83669,689000,4,2.5,Sunfield Estates,2228,8232,2024,85,309,79,Active,,,https://www.redfin.com/ID/Star/9924-W-Sunchaser-St-83669/home/186475530,IMLS,98965632,N,Y,43.7192674,-116.4772645
MLS Listing,,Single Family Residential,9745 W Nicasio Dr,Star,ID,83669,689000,3,2.5,Cresta Del Sol,2245,8755,2025,86,307,92,Active,,,https://www.redfin.com/ID/Star/9745-W-Nicasio-Dr-83669/home/197671989,IMLS,98965450,N,Y,43.7288,-116.474835
MLS Listing,,Townhouse,5026 S Brian Ave,Boise,ID,83716,689000,3,2.5,Woven Sub,1881,3571,2025,63,366,75,Active,,,https://www.redfin.com/ID/Boise/5026-S-Brian-Ave-83716/home/199084648,IMLS,98967609,N,Y,43.5320856,-116.0959875
MLS Listing,,Townhouse,3303 E Front Runner Ln,Boise,ID,83716,688888,3,2.0,Barbervalley,1813,2003,2015,4,380,204,Active,,,https://www.redfin.com/ID/Boise/3303-E-Front-Runner-Ln-83716/home/109557913,IMLS,98971430,N,Y,43.5734711,-116.1443822
New Construction Plan,,Single Family Residential,Ashford Plan,Star,ID,83669,687995,4,3.5,Star,3108,,,447,221,,Active,,,https://www.redfin.com/ID/Star/Star/Ashford/home/188282223,Zillow,D3EA8F3AB262,N,Y,43.7220894,-116.4736706
New Construction Plan,,Single Family Residential,Willow Plan,Meridian,ID,83646,687990,5,4.5,Meridian,3622,,,344,190,,Active,,,https://www.redfin.com/ID/Meridian/Meridian/Willow/home/194618706,Zillow,07B8FDDF4551,N,Y,43.658595,-116.4439732
MLS Listing,,Single Family Residential,2264 E Comisky St,Meridian,ID,83646,685000,5,3.0,Vienna Woods,3018,8712,2003,56,227,51,Active,,,https://www.redfin.com/ID/Meridian/2264-E-Comisky-St-83646/home/106778666,IMLS,98968086,N,Y,43.6526082,-116.3663042
MLS Listing,,Townhouse,424 E Thurman Mill St,Garden City,ID,83712,685000,3,3.5,The Waterfront District,2100,784,2007,105,326,100,Active,,,https://www.redfin.com/ID/Garden-City/424-E-Thurman-Mill-St-83714/home/106803355,IMLS,98963710,N,Y,43.6281215,-116.2369886
MLS Listing,,Single Family Residential,1228 E Pennsylvania Pl,Nampa,ID,83686,685000,3,2.5,Glen View Estat,2618,8276,2016,6,262,,Active,,,https://www.redfin.com/ID/Nampa/1228-E-Pennsylvania-Pl-83686/home/116944029,IMLS,98971402,N,Y,43.5480054,-116.5557675
MLS Listing,,Vacant Land,3670 N Lighter Ave,Eagle,ID,83616,685000,,,Terra View,,13939,,30,,233,Active,,,https://www.redfin.com/ID/Eagle/3670-N-Lighter-AVE-83616/home/199701602,IMLS,98969947,N,Y,43.7736996,-116.3805805
MLS Listing,,Single Family Residential,1075 N Purple Sage Way,Eagle,ID,83616,685000,4,2.5,Melvins Eagle Point,2728,9713,1997,28,251,28,Active,,,https://www.redfin.com/ID/Eagle/1075-N-Purple-Sage-Way-83616/home/106755832,IMLS,98970081,N,Y,43.7044216,-116.3246152
MLS Listing,,Single Family Residential,1217 Stirling Meadows Ct,Middleton,ID,83644,684990,4,2.5,Stonehaven,2644,19950,2025,1,259,54,Active,,,https://www.redfin.com/ID/Middleton/1217-Stirling-Meadows-Ct-83644/home/196891111,IMLS,98971818,N,Y,43.749492,-116.584251
New Construction Plan,,Single Family Residential,Brookside Plan,Meridian,ID,83642,684900,4,2.5,Meridian,2525,,,62,271,,Active,,,https://www.redfin.com/ID/Meridian/Meridian/Brookside/home/199112329,Zillow,2AC1ACC55096,N,Y,43.549772,-116.378885
New Construction Plan,,Single Family Residential,The Molalla Plan,Meridian,ID,83646,684900,2,2.0,Meridian,2005,,,273,342,200,Active,,,https://www.redfin.com/ID/Meridian/Meridian/The-Molalla/home/194301854,Zillow,F9EA039E7792,N,Y,43.666056,-116.490377
MLS Listing,,Single Family Residential,1019 E Crescendo St,Meridian,ID,83642,684900,4,2.5,Pinnacle,2570,6011,2026,81,266,83,Active,,,https://www.redfin.com/ID/Meridian/1019-E-Crescendo-St-83642/home/197671205,IMLS,98965871,N,Y,43.549814,-116.38114
New Construction Home,,Single Family Residential,6743 N Wonder Ave,Meridian,ID,83646,684900,3,2.0,Molalla Meridian,2005,5500,2025,179,342,200,Active,,,https://www.redfin.com/ID/Meridian/6743-N-Wonder-AVE-83646/home/196519992,Zillow,45531AADCC09,N,Y,43.666343688964844,-116.49359130859375
MLS Listing,,Single Family Residential,4668 N Alameda Creek Ave,Meridian,ID,83646,684900,4,3.5,Lincoln Creek,2395,5749,2025,115,286,67,Active,,,https://www.redfin.com/ID/Meridian/4668-N-Alameda-Creek-Ave-83646/home/197669766,IMLS,98962529,N,Y,43.647392,-116.475222
MLS Listing,,Single Family Residential,7040 S Palatino Ave,Meridian,ID,83642,684800,4,2.5,Skybreak,2061,7927,2025,20,332,68,Active,January-17-2026 01:00 PM,January-17-2026 04:00 PM,https://www.redfin.com/ID/Meridian/7040-S-Palatino-Ave-83642/home/194181135,IMLS,98970418,N,Y,43.5408628,-116.3533567
MLS Listing,,Single Family Residential,1309 W Grassland Ct,Middleton,ID,83644,684000,4,3.5,Meadows at West Highlands,3135,9801,2025,40,218,71,Active,,,https://www.redfin.com/ID/Middleton/1309-W-Grassland-Ct-83644/home/191859199,IMLS,98969274,N,Y,43.721895,-116.640827
MLS Listing,,Single Family Residential,1120 W Switchgrass Dr,Meridian,ID,83642,684000,4,3.0,Paloma Ridge,2473,10149,2025,5,277,19,Active,,,https://www.redfin.com/ID/Meridian/1120-W-Switchgrass-Dr-83642/home/200003695,IMLS,98971441,N,Y,43.527134,-116.407988
New Construction Plan,,Single Family Residential,Riviera Plan,Kuna,ID,83634,682000,4,2.5,Kuna,2303,,,663,296,,Active,,,https://www.redfin.com/ID/Kuna/Kuna/Riviera/home/188913469,Zillow,A82CFEC455B8,N,Y,43.4984828,-116.3307108
New Construction Plan,,Single Family Residential,Meadowlark Plan,Kuna,ID,83634,682000,4,2.0,Kuna,2103,,,273,324,,Active,,,https://www.redfin.com/ID/Kuna/Kuna/Meadowlark/home/195456647,Zillow,355FA4514431,N,Y,43.5059759,-116.3972298
MLS Listing,,Single Family Residential,3450 E Shergar Ct,Meridian,ID,83642,682000,5,3.5,Sutherland Farm,2710,12632,2004,56,252,33,Active,January-17-2026 11:00 AM,January-17-2026 01:00 PM,https://www.redfin.com/ID/Meridian/3450-E-Shergar-Ct-83642/home/106672306,IMLS,98968129,N,Y,43.5764381,-116.3511649
MLS Listing,,Single Family Residential,8520 W Fanning St,Star,ID,83669,682000,3,3.0,Milestone Ranch,2025,5967,2025,1,337,317,Active,,,https://www.redfin.com/ID/Star/8520-W-Fanning-St-83669/home/197670566,IMLS,98971880,N,Y,43.714549,-116.461829
New Construction Plan,,Single Family Residential,Davenport Plan,Kuna,ID,83634,682000,3,2.5,Kuna,2203,,,663,310,,Active,,,https://www.redfin.com/ID/Kuna/Kuna/Davenport/home/188913394,Zillow,ED72D4FEAF4D,N,Y,43.4984828,-116.3307108
New Construction Plan,,Single Family Residential,Birkdale Plan,Eagle,ID,83616,682000,4,2.0,Eagle,2152,,,111,317,,Active,,,https://www.redfin.com/ID/Eagle/Eagle/Birkdale/home/198294505,Zillow,002C6BEA6629,N,Y,43.695498,-116.440919
MLS Listing,,Single Family Residential,22996 Blessinger Rd,Star,ID,83669,682000,4,3.0,Star - 0950,2392,43560,1971,43,285,,Active,January-17-2026 12:00 PM,January-17-2026 02:00 PM,https://www.redfin.com/ID/Star/22996-Blessinger-Rd-83669/home/116647312,IMLS,98969045,N,Y,43.7056882,-116.5326384
MLS Listing,,Single Family Residential,5067 N Pierce Park Ln,Boise,ID,83714,680000,4,3.0,Boise NW - 0800,2407,6534,2025,140,283,,Active,,,https://www.redfin.com/ID/Boise/5067-N-Pierce-Park-Ln-83714/home/172684199,IMLS,98959857,N,Y,43.6667286,-116.2687374
MLS Listing,,Single Family Residential,3308 N Acre Ln,Boise,ID,83704,680000,3,2.5,Suburban Park,2675,9626,2016,148,254,,Active,,,https://www.redfin.com/ID/Boise/3308-N-Acre-Ln-83704/home/109556789,IMLS,98959013,N,Y,43.635356,-116.2713856
MLS Listing,,Single Family Residential,5055 N Pierce Park Ln,Boise,ID,83714,680000,4,3.0,Boise NW - 0800,2407,6534,2025,140,283,,Active,,,https://www.redfin.com/ID/Boise/5055-N-Pierce-Park-Ln-83714/home/172684200,IMLS,98959856,N,Y,43.6666457,-116.2689431
MLS Listing,,Vacant Land,3593 N Bellrock Ave,Eagle,ID,83616,680000,,,Terra View,,13068,,30,,233,Active,,,https://www.redfin.com/ID/Eagle/3593-N-Bellrock-AVE-83616/home/199701762,IMLS,98969949,N,Y,43.7736996,-116.3805805
MLS Listing,,Single Family Residential,8720 W Cornwall Dr,Boise,ID,83704,679999,4,3.0,Capital Manor S,2741,11761,1975,73,248,,Active,,,https://www.redfin.com/ID/Boise/8720-W-Cornwall-Dr-83704/home/106781105,IMLS,98966600,N,Y,43.63713,-116.290605
MLS Listing,,Single Family Residential,6141 N Torva Ave,Meridian,ID,83646,679990,4,2.5,Friendship Subdivision,2684,5488,2025,39,253,77,Active,,,https://www.redfin.com/ID/Meridian/6141-N-Torva-Ave-83646/home/195833200,IMLS,98969304,N,Y,43.6604804,-116.3857014
New Construction Plan,,Single Family Residential,Powell Plan,Star,ID,83669,679990,3,3.5,Mtrfxt Star,2606,,,198,261,,Active,,,https://www.redfin.com/ID/Star/Mtrfxt-Star/Powell/home/194836894,Zillow,A0B362710D4D,N,Y,43.709305,-116.4651452
New Construction Plan,,Single Family Residential,Powell Plan,Eagle,ID,83616,679990,3,3.5,Eagle,2606,,,16,261,,Active,,,https://www.redfin.com/ID/Eagle/Eagle/Powell/home/197745441,Zillow,54963F3396A7,N,Y,43.704307,-116.3220628
MLS Listing,,Single Family Residential,10447 W Bell Fountain Ct,Star,ID,83669,679990,3,2.5,Heron River,1915,6969,2021,8,355,165,Active,,,https://www.redfin.com/ID/Star/10447-W-Bell-Fountain-Ct-83669/home/175554545,IMLS,98971220,N,Y,43.687268,-116.483607
MLS Listing,,Single Family Residential,1005 E Trophy St,Kuna,ID,83634,679900,4,2.5,Sterling Ranch,2705,9844,2019,81,251,62,Active,January-18-2026 02:00 PM,January-18-2026 04:00 PM,https://www.redfin.com/ID/Kuna/1005-E-Trophy-St-83634/home/168250436,IMLS,98965592,N,Y,43.5048118,-116.4011801
New Construction Plan,,Single Family Residential,The Lewis Plan,N6xfg9 Meridian,ID,83646,679900,4,2.5,Meridian,2305,,,164,295,,Active,,,https://www.redfin.com/ID/N6xfg9-Meridian/Meridian/The-Lewis/home/196790568,Zillow,394E3C86BC7E,N,Y,43.65949249267578,-116.40731048583984
MLS Listing,,Single Family Residential,616 W Millstone St,Middleton,ID,83644,679900,3,2.5,Middleton - 1285,2041,8276,2026,1,333,67,Active,,,https://www.redfin.com/ID/Middleton/616-W-Millstone-ST-83644/home/200076535,IMLS,98971748,N,Y,43.7068281,-116.6201357
MLS Listing,,Single Family Residential,1023 W Malbar St,Meridian,ID,83646,679900,4,2.5,Sagarra,2305,5140,2025,167,295,100,Active,,,https://www.redfin.com/ID/Meridian/1023-W-Malbar-ST-83646/home/196791226,IMLS,98956890,N,Y,43.659423828125,-116.40621185302734
New Construction Home,,Single Family Residential,7580 W Old School St,Meridian,ID,83646,679900,3,3.5,Meridian,2542,,2025,162,267,200,Active,,,https://www.redfin.com/ID/Meridian/7580-W-Old-School-St-83646/home/196915498,Zillow,65F3592F1724,N,Y,43.6664844,-116.488566
New Construction Plan,,Single Family Residential,The Molalla Bonus Plan,Meridian,ID,83646,679900,3,3.5,Meridian,2542,,,273,267,200,Active,,,https://www.redfin.com/ID/Meridian/Meridian/The-Molalla-Bonus/home/194926519,Zillow,6A3535D1639D,N,Y,43.666056,-116.490377
MLS Listing,,Single Family Residential,6089 N Royal Park,Boise,ID,83713-0101,679900,6,4.0,Bristol Heights,3249,7405,2000,4,209,69,Active,January-16-2026 03:30 PM,January-16-2026 05:00 PM,https://www.redfin.com/ID/Boise/6089-N-Royal-Park-Ave-83713/home/106812140,IMLS,98971535,N,Y,43.660178,-116.362143
MLS Listing,,Single Family Residential,12013 W Zamalek Ct,Kuna,ID,83634,679900,3,2.0,Reveille at Valor,1917,6011,2024,229,355,188,Active,,,https://www.redfin.com/ID/Kuna/12013-W-Zamalek-Ct-83634/home/186474356,IMLS,98948236,N,Y,43.5012106,-116.3316431
MLS Listing,,Single Family Residential,1048 E Escalation St,Meridian,ID,83642,679777,3,2.5,Pinnacle,2122,6011,2025,92,320,67,Active,January-16-2026 01:00 PM,January-16-2026 05:00 PM,https://www.redfin.com/ID/Meridian/1048-E-Escalation-St-83642/home/197671203,IMLS,98964883,N,Y,43.549259,-116.380758
MLS Listing,,Single Family Residential,1049 E Crescendo St,Meridian,ID,83642,679777,3,2.5,Pinnacle,2114,6011,2025,113,322,67,Active,January-16-2026 01:00 PM,January-16-2026 05:00 PM,https://www.redfin.com/ID/Meridian/1049-E-Crescendo-St-83642/home/197671202,IMLS,98962738,N,Y,43.549828,-116.380766
MLS Listing,,Single Family Residential,1276 N Cambrick Dr,Kuna,ID,83634,679000,6,4.0,Calico Creek,3367,23565,1988,126,202,17,Active,,,https://www.redfin.com/ID/Kuna/1276-N-Cambrick-Dr-83634/home/106738148,IMLS,98961416,N,Y,43.5009055,-116.4094524
MLS Listing,,Single Family Residential,1920 Chokecherry Ave,Middleton,ID,83644,679000,3,2.0,Meadows at West Highlands,1857,23783,2025,2,366,71,Active,,,https://www.redfin.com/ID/Middleton/1920-Chokecherry-AVE-Unknown/home/198419160,IMLS,98971659,N,Y,43.7068281,-116.6201357
New Construction Plan,,Single Family Residential,Tamarack Plan,Kuna,ID,83634,679000,4,3.0,Kuna,2438,,,171,279,,Active,,,https://www.redfin.com/ID/Kuna/Kuna/Tamarack/home/188913426,Zillow,B796416BD603,N,Y,43.4872441,-116.3837251
MLS Listing,,Single Family Residential,2311 S Rushmore Ct,Boise,ID,83709,679000,4,2.5,Pepper Hills Su,2575,9365,2006,8,264,14,Active,,,https://www.redfin.com/ID/Boise/2311-S-Rushmore-Ct-83709/home/106764529,IMLS,98971232,N,Y,43.5818353,-116.3324939
MLS Listing,,Single Family Residential,5702 W Ladle Rapids St,Meridian,ID,83646,676990,3,3.5,Prescott Ridge,2917,8276,2026,131,232,67,Active,,,https://www.redfin.com/ID/Meridian/5702-W-Ladle-Rapids-St-83646/home/197663968,IMLS,98960847,N,Y,43.6562713,-116.4648618
MLS Listing,,Single Family Residential,801 E Crest Ridge Dr,Meridian,ID,83642,675000,4,3.0,Reflection Ridge,2572,6621,2018,83,262,83,Active,January-18-2026 12:00 PM,January-18-2026 02:00 PM,https://www.redfin.com/ID/Meridian/801-E-Crest-Ridge-Dr-83642/home/145981449,IMLS,98965509,N,Y,43.5648958,-116.3843141
MLS Listing,,Townhouse,451 E Lotus Ln,Garden City,ID,83714,675000,4,3.5,Garden City - 0700,2251,1785,2026,57,300,100,Active,,,https://www.redfin.com/ID/Garden-City/451-E-Lotus-LN-Unknown/home/199209517,IMLS,98967962,N,Y,43.6221108,-116.2381744
MLS Listing,,Single Family Residential,4558 NE Lott Rd,Mountain Home,ID,83647,675000,4,2.0,Mtn Home-Elmore - 1500,1782,220849,1998,66,379,,Active,,,https://www.redfin.com/ID/Mountain-Home/4558-NE-Lott-Rd-83647/home/104927127,IMLS,98966047,N,Y,43.175062,-115.6964969
MLS Listing,,Single Family Residential,1326 N Mansfield Pl,Eagle,ID,83616,675000,4,2.5,Lexington Hills,2541,9147,1999,40,266,81,Active,,,https://www.redfin.com/ID/Eagle/1326-N-Mansfield-Pl-83616/home/106708362,IMLS,98968984,N,Y,43.707185,-116.32115
MLS Listing,,Single Family Residential,3382 Hwy 21,Boise,ID,83716,675000,3,3.0,East Boise County - 1450,1972,144619,2001,179,342,,Active,,,https://www.redfin.com/ID/Boise/3382-Highway-21-83716/home/115180879,IMLS,98955285,N,Y,43.7777226,-115.9033966
MLS Listing,,Single Family Residential,4577 N Comiso,Meridian,ID,83646,675000,4,2.5,Bridgetower West,2199,10280,2018,95,307,73,Active,,,https://www.redfin.com/ID/Meridian/4577-N-Comiso-Pl-83646/home/109555960,IMLS,98964569,N,Y,43.6466612,-116.4375421
MLS Listing,,Vacant Land,TBD Mountain Hawk Rd,Nampa,ID,83651,675000,,,Nampa South (86) - 1260,,425145,,270,,,Active,,,https://www.redfin.com/ID/Nampa/TBD-Mountain-Hawk-83686/home/183372336,IMLS,98943726,N,Y,43.4891372,-116.589439
MLS Listing,,Single Family Residential,3082 E Sweetwater Dr,Boise,ID,83716,675000,5,2.0,Littletree Sub,2432,9147,1979,127,278,,Active,,,https://www.redfin.com/ID/Boise/3082-E-Sweetwater-Dr-83716/home/106660969,IMLS,98961284,N,Y,43.5555845,-116.1455335
MLS Listing,,Vacant Land,87 Robie Springs Rd,Boise,ID,83716,675000,,,Robie Springs,,108900,,41,,132,Active,,,https://www.redfin.com/ID/Boise/87-Robie-Springs-Rd-83716/home/185778655,IMLS,98969251,N,Y,43.6262531,-116.0000347
MLS Listing,,Vacant Land,TBD Mountain Hawk Rd,Nampa,ID,83686,675000,,,Nampa South (86) - 1260,,419918,,270,,,Active,,,https://www.redfin.com/ID/Nampa/TBD-Mountain-Hawk-Rd-83686/home/145191926,IMLS,98943729,N,Y,43.4891372,-116.589439
New Construction Plan,,Single Family Residential,Hemingway Plan,Meridian,ID,83646,674990,4,2.5,Meridian,2710,,,289,249,,Active,,,https://www.redfin.com/ID/Meridian/Meridian/Hemingway/home/195234219,Zillow,054998C6ADB0,N,Y,43.6599772,-116.3847839
MLS Listing,,Single Family Residential,1011 S River Stone,Nampa,ID,83686,674990,4,3.5,Fall River Estates,3005,10454,2007,105,225,23,Active,,,https://www.redfin.com/ID/Nampa/1011-S-Riverstone-Dr-83686/home/116628896,IMLS,98963826,N,Y,43.5595118,-116.6094322
MLS Listing,,Single Family Residential,6117 N Torva Ave,Meridian,ID,83646,674990,4,2.5,Friendship Subdivision,2684,5140,2025,38,251,77,Active,,,https://www.redfin.com/ID/Meridian/6117-N-Torva-Ave-83646/home/195743932,IMLS,98969359,N,Y,43.6601918,-116.385708
MLS Listing,,Single Family Residential,3822 E Jamestown Dr,Nampa,ID,83686,674990,5,4.5,New York Landing,3937,8712,2025,56,171,58,Active,,,https://www.redfin.com/ID/Nampa/3822-E-Jamestown-Dr-83686/home/196888065,IMLS,98968164,N,Y,43.500385,-116.612158
MLS Listing,,Multi-Family (2-4 Unit),918 NW 4th St,Meridian,ID,83646-2186,674900,6,3.0,Nidays Add,3072,7405,1970,42,220,,Active,,,https://www.redfin.com/ID/Meridian/918-NW-4th-St-83642/home/106712761,IMLS,98969120,N,Y,43.6124816,-116.3980145
MLS Listing,,Single Family Residential,12464 W Wild Thistle Dr,Star,ID,83669,674900,3,2.5,Aliso Creek,2684,9016,2025,79,251,100,Active,,,https://www.redfin.com/ID/Star/12464-W-Wild-Thistle-Dr-83669/home/194182425,IMLS,98966107,N,Y,43.709593,-116.508998
MLS Listing,,Single Family Residential,1701 W Puzzle Creek Ct,Meridian,ID,83646,674900,4,3.0,Lochsa Falls,2381,9321,2004,36,283,51,Active,January-19-2026 12:00 PM,January-19-2026 02:00 PM,https://www.redfin.com/ID/Meridian/1701-W-Puzzle-Creek-Dr-83646/home/106655334,IMLS,98969514,N,Y,43.6550915,-116.4150308
MLS Listing,,Single Family Residential,535 E Distributor Dr,Mayfield,ID,83716,674900,3,2.5,Mayfield Springs,2164,9147,2025,56,312,100,Active,,,https://www.redfin.com/ID/Mayfield/535-E-Distributor-DR-83716/home/199244485,IMLS,98968124,N,Y,43.417948,-115.90149
MLS Listing,,Single Family Residential,1485 E Andes Dr,Kuna,ID,83634,674900,4,2.5,Patagonia,2614,5749,2025,81,258,58,Active,January-17-2026 01:00 PM,January-17-2026 05:00 PM,https://www.redfin.com/ID/Kuna/1485-E-Andes-Dr-83634/home/196233989,IMLS,98965860,N,Y,43.5176649,-116.3754841
MLS Listing,,Single Family Residential,8151 Granite Rdg,Boise,ID,83716,674900,4,3.5,Sunny Ridge,2347,6098,2025,7,288,61,Active,,,https://www.redfin.com/ID/Boise/8151-S-Granite-Ridge-Way-83716/home/181147024,IMLS,98971356,N,Y,43.527596,-116.103413
MLS Listing,,Single Family Residential,1343 W Malbar St,Meridian,ID,83646,674800,3,2.5,Sagarra,2272,5880,2025,120,297,100,Active,,,https://www.redfin.com/ID/Meridian/1343-W-Malbar-ST-83646/home/196162630,IMLS,98962064,N,Y,43.65940475463867,-116.41024780273438
MLS Listing,,Townhouse,2934 N Mountain Rd,Boise,ID,83702,674000,3,2.5,Terrace Ridge T,1998,3049,1975,53,337,100,Active,January-17-2026 01:00 PM,January-17-2026 04:00 PM,https://www.redfin.com/ID/Boise/2934-N-North-Mountain-Rd-83702/home/106672553,IMLS,98968408,N,Y,43.646613,-116.215902
MLS Listing,,Single Family Residential,9067 W Patmore Ct,Star,ID,83669,674000,4,3.0,Heirloom Ridge,2667,9931,2025,97,253,75,Active,January-17-2026 11:00 AM,January-17-2026 04:00 PM,https://www.redfin.com/ID/Star/9067-W-Patmore-Ct-83669/home/197665886,IMLS,98964508,N,Y,43.703871,-116.466715
MLS Listing,,Single Family Residential,11819 S Glory Ln,Kuna,ID,83634-2617,673789,3,3.0,Trilogy,2603,7797,2025,18,259,496,Active,,,https://www.redfin.com/ID/Kuna/11819-S-Glory-Ln-83634/home/186477466,IMLS,98970479,N,Y,43.495328,-116.33382
New Construction Plan,,Single Family Residential,Sycamore Plan,Meridian,ID,83646,672990,4,3.0,Meridian,3323,,,344,203,,Active,,,https://www.redfin.com/ID/Meridian/Meridian/Sycamore/home/194618674,Zillow,1D7358A04C75,N,Y,43.658595,-116.4439732
New Construction Plan,,Single Family Residential,Ponderay Plan,Star,ID,83669,670995,4,3.5,Star,3275,,,447,205,,Active,,,https://www.redfin.com/ID/Star/Star/Ponderay/home/190398247,Zillow,C2AB0670C8D2,N,Y,43.7220894,-116.4736706
MLS Listing,,Multi-Family (2-4 Unit),910 & 1015 E 9th S,Mountain Home,ID,83647,670000,8,4.0,Willis Carries Paradise,2800,20908,1950,57,239,,Active,,,https://www.redfin.com/ID/Mountain-Home/910-E-9th-S-83647/home/143348285,IMLS,98967990,N,Y,43.1227124,-115.6870858
MLS Listing,,Single Family Residential,4300 NW Purple Sage Cir,Mountain Home,ID,83647,670000,3,3.0,Blue Sage,2152,50529,2025,271,311,60,Active,,,https://www.redfin.com/ID/Mountain-Home/4300-NW-Purple-Sage-Cir-83647/home/185558720,IMLS,98941310,N,Y,43.16878,-115.726483
New Construction Plan,,Single Family Residential,Tanner Plan,Star,ID,83669,669995,4,3.5,Star,3141,,,504,213,,Active,,,https://www.redfin.com/ID/Star/Star/Tanner/home/192295344,Zillow,FEB62EA87218,N,Y,43.705203,-116.464754
MLS Listing,,Single Family Residential,5433 W Yarnell St,Eagle,ID,83616,669990,4,2.5,Beaconwood,2626,17336,2025,28,255,74,Active,,,https://www.redfin.com/ID/Eagle/5433-W-Yarnell-St-83616/home/197671421,IMLS,98970078,N,Y,43.717864,-116.421418
MLS Listing,,Single Family Residential,1223 E Andes Dr,Kuna,ID,83634,669900,3,2.5,Patagonia,2202,8450,2025,133,304,58,Active,,,https://www.redfin.com/ID/Kuna/1223-E-Andes-Dr-83634/home/197671058,IMLS,98960688,N,Y,43.5177306,-116.3787275
MLS Listing,,Single Family Residential,852 N River Path Ln,Boise,ID,83703,669900,4,2.5,Laney Green,2060,5227,2014,1,325,17,Active,January-17-2026 01:00 PM,January-17-2026 04:00 PM,https://www.redfin.com/ID/Boise/852-N-River-Path-Ln-83703/home/106804970,IMLS,98971878,N,Y,43.6444475,-116.2483723
MLS Listing,,Single Family Residential,2584 E Galleon Ln,Meridian,ID,83642,669900,3,2.5,East Ridge,2121,5227,2025,107,316,82,Active,,,https://www.redfin.com/ID/Meridian/2584-E-Galleon-Ln-83642/home/186477894,IMLS,98962905,N,Y,43.548755,-116.362191
New Construction Home,,Single Family Residential,2829 W Warlander,Meridian,ID,83642,669900,5,2.5,Meridian,2400,,2025,108,279,44,Active,,,https://www.redfin.com/ID/Meridian/2829-W-Warlander-St-83642/home/196235289,Zillow,2E9FEF70323E,N,Y,43.547694,-116.429109
MLS Listing,,Condo/Co-op,1620 W Bannock St #206,Boise,ID,83702,669900,2,2.0,Mccartys Sub,1150,,2023,45,583,327,Active,January-31-2026 12:00 PM,January-31-2026 02:00 PM,https://www.redfin.com/ID/Boise/1620-W-Bannock-St-83702/unit-206/home/185967873,IMLS,98968878,N,Y,43.6225855,-116.2121687
MLS Listing,,Single Family Residential,12014 W Zamalek Ct,Kuna,ID,83634,669900,3,2.0,Reveille at Valor,1878,6403,2025,85,357,135,Active,January-16-2026 12:00 PM,January-16-2026 05:00 PM,https://www.redfin.com/ID/Kuna/12014-W-Zamalek-Ct-83634/home/186474340,IMLS,98965604,N,Y,43.501643,-116.331782
MLS Listing,,Single Family Residential,1642 Banff St,Middleton,ID,83644,669000,5,2.5,Stonehaven,2553,9147,2022,232,262,54,Active,,,https://www.redfin.com/ID/Middleton/1642-Banff-St-83644/home/176206578,IMLS,98948896,N,Y,43.7168793,-116.645988
MLS Listing,,Single Family Residential,9767 W Nicasio Dr,Star,ID,83669,669000,3,2.5,Cresta Del Sol,2353,8755,2025,41,284,92,Active,January-17-2026 11:00 AM,January-17-2026 04:00 PM,https://www.redfin.com/ID/Star/9767-W-Nicasio-Dr-83669/home/197671990,IMLS,98969241,N,Y,43.728799,-116.475102
MLS Listing,,Vacant Land,6467 Hwy 20 26,Nampa,ID,83687,667000,,,Nampa NE (87) - 1250,,60984,,39,,,Active,,,https://www.redfin.com/ID/Nampa/6467-Highway-20-26-83687/home/116665788,IMLS,98969329,N,Y,43.6627602,-116.5225375
MLS Listing,,Single Family Residential,8555 S Country Wind Ave,Meridian,ID,83642,665000,4,3.0,Paloma Ridge,2667,9670,2025,162,249,75,Active,January-17-2026 11:00 AM,January-17-2026 04:00 PM,https://www.redfin.com/ID/Meridian/8555-S-Country-Wind-Ave-83642/home/196915215,IMLS,98957461,N,Y,43.526938,-116.410372
MLS Listing,,Single Family Residential,2040 W Ibis Dr,Nampa,ID,83686,665000,4,3.0,Heron Ridge,2094,8276,2023,172,318,50,Active,,,https://www.redfin.com/ID/Nampa/2040-W-Ibis-Dr-83686/home/186218923,IMLS,98956094,N,Y,43.5464631,-116.6051555
New Construction Plan,,Single Family Residential,Pinehurst Plan,Eagle,ID,83616,665000,3,2.0,Eagle,1943,,,112,342,,Active,,,https://www.redfin.com/ID/Eagle/Eagle/Pinehurst/home/198279470,Zillow,D9F4C000CA80,N,Y,43.695498,-116.440919
MLS Listing,,Single Family Residential,1016 W Rose Quartz,Kuna,ID,83634,665000,4,2.5,Mineral Springs,2790,8276,2017,16,238,22,Active,,,https://www.redfin.com/ID/Kuna/1016-W-Rose-Quartz-St-83634/home/106692347,IMLS,98970605,N,Y,43.5080648,-116.4249803
MLS Listing,,Single Family Residential,7280 W Crested Eagle Dr,Boise,ID,83709,664990,4,2.5,Locale,2543,11151,2025,56,261,100,Active,,,https://www.redfin.com/ID/Boise/7280-W-Crested-Eagle-Dr-83709/home/197670307,IMLS,98968180,N,Y,43.544037,-116.272663
MLS Listing,,Single Family Residential,2954 N Rivington Ave,Eagle,ID,83616,664990,4,2.5,Beaconwood,2626,13111,2025,64,253,74,Active,,,https://www.redfin.com/ID/Eagle/2954-N-Rivington-Ave-83616/home/197671422,IMLS,98967476,N,Y,43.718297,-116.422235
MLS Listing,,Single Family Residential,1109 W Cub River Dr,Meridian,ID,83642,664990,4,3.0,Springhill,3250,8363,2025,32,205,57,Active,,,https://www.redfin.com/ID/Meridian/1109-W-Cub-River-Dr-83642/home/197667824,IMLS,98969759,N,Y,43.545752,-116.407664
New Construction Home,,Single Family Residential,2813 Warlander,Meridian,ID,83642,664900,5,2.5,Meridian,2400,,2025,58,277,44,Active,,,https://www.redfin.com/ID/Meridian/2813-W-Warlander-St-83642/home/197671710,Zillow,5E093D58C3AE,N,Y,43.547708,-116.42882
New Construction Plan,,Single Family Residential,The Admiral RV Plan,Meridian,ID,83642,664900,5,2.5,Meridian,2400,,,355,277,44,Active,,,https://www.redfin.com/ID/Meridian/Meridian/The-Admiral-RV/home/194218623,Zillow,BDAFB4C83165,N,Y,43.549445,-116.42894
MLS Listing,,Single Family Residential,4712 W Apgar St,Meridian,ID,83646,664900,4,2.5,Brody Square,2511,5706,2023,43,265,71,Active,,,https://www.redfin.com/ID/Meridian/4712-W-Apgar-St-83646/home/184181363,IMLS,98969102,N,Y,43.6499722,-116.452552
MLS Listing,,Single Family Residential,670 S Berwick Dr,Boise,ID,83706,664500,3,3.0,Sylvan Park Sub,1900,6969,1977,72,350,,Active,,,https://www.redfin.com/ID/Boise/670-S-Berwick-Dr-83706/home/106696106,IMLS,98966703,N,Y,43.5735312,-116.1894155
MLS Listing,,Single Family Residential,5259 W River Oaks Dr,Meridian,ID,83646,664000,4,3.0,The Oaks North,2473,9191,2025,49,268,65,Active,,,https://www.redfin.com/ID/Meridian/5259-W-River-Oaks-Dr-83646/home/186473474,IMLS,98968705,N,Y,43.656214,-116.458725
New Construction Plan,,Single Family Residential,Marquette Plan,Meridian,ID,83642,664000,4,2.5,Meridian,2485,,,62,267,,Active,,,https://www.redfin.com/ID/Meridian/Meridian/Marquette/home/199112417,Zillow,C7B5AF5CBF47,N,Y,43.549772,-116.378885
MLS Listing,,Single Family Residential,1018 E Escalation St,Meridian,ID,83642,664000,4,2.5,Pinnacle,2455,6011,2026,100,270,83,Active,,,https://www.redfin.com/ID/Meridian/1018-E-Escalation-St-83642/home/197671206,IMLS,98964134,N,Y,43.549249,-116.381133
New Construction Plan,,Single Family Residential,Streamsong Plan,Eagle,ID,83616,664000,3,2.0,Eagle,1802,,,111,368,,Active,,,https://www.redfin.com/ID/Eagle/Eagle/Streamsong/home/198294497,Zillow,B90D17D4E355,N,Y,43.695498,-116.440919
New Construction Plan,,Single Family Residential,Meadowlark Plan,Eagle,ID,83616,663000,4,2.0,Eagle,2103,,,8,315,,Active,,,https://www.redfin.com/ID/Eagle/Eagle/Meadowlark/home/199981582,Zillow,BF39EDF488AF,N,Y,43.75606918334961,-116.42547607421875
New Construction Plan,,Single Family Residential,Forest Plan,Meridian,ID,83646,662995,4,3.0,Meridian,2668,,,513,248,,Active,,,https://www.redfin.com/ID/Meridian/Meridian/Forest/home/192163322,Zillow,3234F4944600,N,Y,43.6501639,-116.464357
MLS Listing,,Townhouse,3362 E Exacta Ln,Boise,ID,83716,662900,3,3.0,Park Place,1909,1742,2018,38,347,200,Active,,,https://www.redfin.com/ID/Boise/3362-E-Exacta-Ln-83716/home/146114746,IMLS,98969401,N,Y,43.5743706,-116.1424992
MLS Listing,,Single Family Residential,5819 N Artic Point Ave,Meridian,ID,83646,662865,4,3.0,Prescott Ridge,2823,5575,2025,131,235,67,Active,,,https://www.redfin.com/ID/Meridian/5819-N-Artic-Point-AVE-83646/home/197704060,IMLS,98960846,N,Y,43.70547866821289,-116.42667388916016
New Construction Plan,,Single Family Residential,Maple Plan,Kuna,ID,83634,661000,3,3.0,Kuna,2300,,,765,287,,Active,,,https://www.redfin.com/ID/Kuna/Kuna/Maple/home/188913953,Zillow,34CA58B22895,N,Y,43.4984828,-116.3307108
MLS Listing,,Townhouse,441 E Lotus Ln,Garden City,ID,83714,660000,3,3.5,Garden City - 0700,2168,2003,2026,57,304,100,Active,,,https://www.redfin.com/ID/Garden-City/441-E-Lotus-LN-Unknown/home/199209518,IMLS,98967963,N,Y,43.6221108,-116.2381744
MLS Listing,,Single Family Residential,10093 W Mcmillan & 10095 Mcmillan (Adu),Boise,ID,83704,660000,4,3.5,Shelleys Plaza Sub,2298,5052,2025,106,287,,Active,January-18-2026 01:00 PM,January-18-2026 03:00 PM,https://www.redfin.com/ID/Boise/10093-W-McMillan-Rd-83704/home/195607868,IMLS,98963593,N,Y,43.648291,-116.307703
New Construction Plan,,Single Family Residential,Harris Plan,Eagle,ID,83616,659990,3,2.5,Eagle,2456,,,12,269,,Active,,,https://www.redfin.com/ID/Eagle/Eagle/Harris/home/197745519,Zillow,EAF3E7784E41,N,Y,43.704307,-116.3220628
MLS Listing,,Single Family Residential,12733 N 10th Ave,Garden City,ID,83714-9333,659900,4,2.5,Hidden Springs,2087,5967,2005,64,316,165,Active,,,https://www.redfin.com/ID/Garden-City/12733-N-10th-Ave-83714/home/106676632,IMLS,98967454,N,Y,43.718992,-116.247466
New Construction Plan,,Single Family Residential,Plan 2543 RV Plan,Meridian,ID,83646,659900,4,3.0,Meridian,2542,,,92,260,,Active,,,https://www.redfin.com/ID/Meridian/Meridian/Plan-2543-RV/home/198627546,Zillow,5DE1C3116C77,N,Y,43.65064,-116.448894
New Construction Plan,,Single Family Residential,SuperHome Next Gen Plan,Kuna,ID,83634,659900,5,4.5,Kuna,3848,,,92,171,,Active,,,https://www.redfin.com/ID/Kuna/Kuna/SuperHome-Next-Gen/home/198627654,Zillow,795647E519A0,N,Y,43.476200103759766,-116.41400146484375
MLS Listing,,Single Family Residential,10858 W Cruden Bay Ln,Kuna,ID,83634,659880,4,2.0,Medallion at Valor,2103,7448,2026,14,314,222,Active,,,https://www.redfin.com/ID/Kuna/10858-W-Cruden-Bay-Ln-83634/home/197668570,IMLS,98970783,N,Y,43.500615,-116.317464
New Construction Plan,,Single Family Residential,Foxfire Plan,Meridian,ID,83642,659800,4,2.0,Meridian,2061,,,94,320,68,Active,,,https://www.redfin.com/ID/Meridian/Meridian/Foxfire/home/198594514,Zillow,EBEAB7924D70,N,Y,43.5416507,-116.353815
MLS Listing,,Single Family Residential,3627 N San Carlos Way,Star,ID,83669,659000,3,3.0,Cresta Del Sol,2353,9713,2025,62,280,92,Active,January-17-2026 11:00 AM,January-17-2026 04:00 PM,https://www.redfin.com/ID/Star/3627-N-San-Carlos-Way-83669/home/196079110,IMLS,98967698,N,Y,43.72551,-116.476641
MLS Listing,,Single Family Residential,1634 W Wright St,Boise,ID,83705,659000,3,2.5,Davis Acres,1782,11325,2014,29,370,,Active,,,https://www.redfin.com/ID/Boise/1634-W-Wright-St-83705/home/106714678,IMLS,98969954,N,Y,43.5721337,-116.2014455
MLS Listing,,Single Family Residential,2604 N Leatherwood Ave,Star,ID,83669,659000,3,2.5,Milestone Ranch,2201,6054,2025,81,299,317,Active,,,https://www.redfin.com/ID/Star/2604-N-Leatherwood-Ave-83669/home/197670553,IMLS,98965896,N,Y,43.715136,-116.459327
New Construction Plan,,Single Family Residential,Wasatch Plan,Star,ID,83669,658995,4,3.0,Star,3185,,,447,207,,Active,,,https://www.redfin.com/ID/Star/Star/Wasatch/home/190398243,Zillow,3BAD3200437C,N,Y,43.7220894,-116.4736706
New Construction Plan,,Single Family Residential,Riverton Plan,Eagle,ID,83616,657000,3,2.0,Eagle,1839,,,111,357,,Active,,,https://www.redfin.com/ID/Eagle/Eagle/Riverton/home/198294503,Zillow,766608855EA2,N,Y,43.695498,-116.440919
New Construction Plan,,Single Family Residential,Plan 2800 Plan,Meridian,ID,83646,656900,5,3.0,Meridian,2800,,,92,235,,Active,,,https://www.redfin.com/ID/Meridian/Meridian/Plan-2800/home/198626848,Zillow,569C337FC6CB,N,Y,43.65064,-116.448894
MLS Listing,,Vacant Land,2959 S Saturn Way,Boise,ID,83709,656100,,,699 - Not Defined,,66646,,119,,,Active,,,https://www.redfin.com/ID/Boise/2959-S-Saturn-WAY-83709/home/198107685,CRMLS,OC25221102,N,Y,43.576212,-116.282988
MLS Listing,,Vacant Land,7469 N Cavea Ln,Meridian,ID,83646,655000,,,Element Skye,,43560,,303,,250,Active,,,https://www.redfin.com/ID/Meridian/7469-N-Cavea-Ln-83646/home/186477235,IMLS,98939560,N,Y,43.672916,-116.411173
MLS Listing,,Single Family Residential,14701 Port Royal St,Caldwell,ID,83607,655000,4,3.5,Passero Ridge,3167,9583,2024,84,207,83,Active,January-18-2026 01:00 PM,January-18-2026 03:00 PM,https://www.redfin.com/ID/Caldwell/14701-Port-Royal-St-83607/home/190864687,IMLS,98965656,N,Y,43.5917806,-116.6870069
New Construction Plan,,Single Family Residential,Azalea Plan,Eagle,ID,83616,655000,4,3.0,Eagle,2104,,,185,311,,Active,,,https://www.redfin.com/ID/Eagle/Eagle/Azalea/home/196428321,Zillow,9CCC0DFE73CF,N,Y,43.75606918334961,-116.42547607421875
MLS Listing,,Single Family Residential,4329 N Life Tree Ln,Garden City,ID,83714,655000,3,3.5,Fairview Acres,2116,2613,2026,57,310,50,Active,,,https://www.redfin.com/ID/Garden-City/4329-N-Life-Tree-Ln-83714/home/184352108,IMLS,98968074,N,Y,43.6343865,-116.2517625
MLS Listing,,Multi-Family (2-4 Unit),2712 & 2714 Madison,Boise,ID,83702,655000,4,3.0,West Side Sub,2296,6098,2002,2,285,,Active,,,https://www.redfin.com/ID/Boise/2712-W-Madison-Ave-83702/home/106786681,IMLS,98971648,N,Y,43.625607,-116.2247267
MLS Listing,,Single Family Residential,534 W Jordanelle,Meridian,ID,83646,654900,3,2.5,Cedar Springs,2342,7100,2013,7,280,29,Active,,,https://www.redfin.com/ID/Meridian/534-W-Jordanell-Dr-83646/home/106675267,IMLS,98971267,N,Y,43.6436089,-116.4005104
MLS Listing,,Single Family Residential,6753 N Magic Mallard Ave Unit Larkspur,Meridian,ID,83646,654900,3,3.0,Inspirado,2283,5749,2025,176,287,200,Active,January-17-2026 12:00 PM,January-17-2026 04:00 PM,https://www.redfin.com/ID/Meridian/6753-N-Magic-Mallard-Ave-83646/home/194183849,IMLS,98955784,N,Y,43.666269,-116.489098
MLS Listing,,Single Family Residential,533 W Millstone St,Middleton,ID,83644,654900,3,2.0,The Mill at Middleton,2111,7840,2025,29,310,67,Active,January-18-2026 11:30 AM,January-18-2026 02:30 PM,https://www.redfin.com/ID/Middleton/533-W-Millstone-ST-83644/home/199715118,IMLS,98969963,N,Y,43.7068281,-116.6201357
MLS Listing,,Townhouse,1719 S Federal Way,Boise,ID,83705,654880,3,2.5,Midtown Heights,1821,1655,2025,14,360,161,Active,,,https://www.redfin.com/ID/Boise/1719-S-Federal-Way-83705/home/194182042,IMLS,98970769,N,Y,43.587924,-116.201779
MLS Listing,,Single Family Residential,1247 W Osceola St,Middleton,ID,83644,654000,4,3.5,Meadows at West Highlands,3135,7927,2025,96,209,71,Active,,,https://www.redfin.com/ID/Middleton/1247-W-Osceola-St-83644/home/191859205,IMLS,98964527,N,Y,43.721211,-116.640057
New Construction Plan,,Single Family Residential,Meadowlark Plan,Kuna,ID,83634,653000,4,2.0,Kuna,2103,,,663,311,,Active,,,https://www.redfin.com/ID/Kuna/Kuna/Meadowlark/home/188913437,Zillow,50E971297F07,N,Y,43.4984828,-116.3307108
New Construction Plan,,Single Family Residential,Plan 2800 Plan,Boise,ID,83713,652900,5,3.0,Boise,2801,,,260,233,,Active,,,https://www.redfin.com/ID/Boise/Boise/Plan-2800/home/195580982,Zillow,C04C124EC526,N,Y,43.640499114990234,-116.33380126953125
MLS Listing,,Single Family Residential,405 S Diesel Way,Boise,ID,83716,650900,4,2.5,Mayfield Springs,2214,8276,2025,120,294,100,Active,,,https://www.redfin.com/ID/Boise/405-S-Diesel-WAY-Unknown/home/198078019,IMLS,98962075,N,Y,43.6150186,-116.2023137
MLS Listing,,Vacant Land,1883 S Satellite Way,Boise,ID,83712,650000,,,Boulder Point,,11979,,448,,83,Active,,,https://www.redfin.com/ID/Boise/1883-S-Satellite-Way-83712/home/173789225,IMLS,98927649,N,Y,43.586183,-116.142617
MLS Listing,,Vacant Land,4276 W Mockingjay,Kuna,ID,83634,650000,,,Feather Creek Ridge,,217800,,94,,,Active,,,https://www.redfin.com/ID/Kuna/4276-W-Mockingjay-Unknown/home/198592106,IMLS,98964649,N,Y,43.4918307,-116.4201223
MLS Listing,,Single Family Residential,5932 W Quintale Dr,Meridian,ID,83646,650000,6,3.5,The Oaks,2568,6621,2018,15,253,54,Active,January-17-2026 11:00 AM,January-17-2026 02:00 PM,https://www.redfin.com/ID/Meridian/5932-W-Quintale-Dr-83646/home/145656423,IMLS,98970651,N,Y,43.6473647,-116.4678846
MLS Listing,,Single Family Residential,5101 N Sunderland,Boise,ID,83704,650000,5,3.5,Sherwood Park West,3350,8407,1973,64,194,,Active,,,https://www.redfin.com/ID/Boise/5101-N-Sunderland-Dr-83704/home/106730185,IMLS,98967459,N,Y,43.6515008,-116.302473
MLS Listing,,Single Family Residential,819 S Powerline Rd,Nampa,ID,83686,650000,7,5.0,Nampa South (86) - 1260,3161,16117,1976,3,206,,Active,,,https://www.redfin.com/ID/Nampa/819-S-Powerline-Rd-83686/home/117131103,IMLS,98971629,N,Y,43.5607677,-116.5533519
MLS Listing,,Single Family Residential,15125 Machen Pl,Caldwell,ID,83607,650000,5,3.5,Willis Ranch,2080,65340,1998,99,313,17,Active,,,https://www.redfin.com/ID/Caldwell/15125-Machen-Pl-83607/home/116686310,IMLS,98964236,N,Y,43.7220885,-116.6947389
MLS Listing,,Vacant Land,4188 W Mockingjay,Kuna,ID,83634,650000,,,Feather Creek Ridge,,217800,,94,,,Active,,,https://www.redfin.com/ID/Kuna/4188-W-Kuna-Rd-83634/home/116922678,IMLS,98964647,N,Y,43.4896094,-116.4769106
MLS Listing,,Vacant Land,4090 W Mockingjay Ln,Kuna,ID,83634,650000,,,Feather Creek Ridge,,217800,,94,,,Active,,,https://www.redfin.com/ID/Kuna/4090-W-Mockingjay-LN-Unknown/home/198591241,IMLS,98964642,N,Y,43.4918307,-116.4201223
MLS Listing,,Single Family Residential,11379 W Helenium Dr,Star,ID,83669,650000,4,3.0,Hope Springs,2714,5793,2023,168,239,70,Active,,,https://www.redfin.com/ID/Star/11379-W-Helenium-Dr-83669/home/186111982,IMLS,98956721,N,Y,43.7149919,-116.495254
MLS Listing,,Vacant Land,4350 W Mockingjay,Kuna,ID,83634,650000,,,Feather Creek Ridge,,217800,,94,,,Active,,,https://www.redfin.com/ID/Kuna/4350-W-Mockingjay-Unknown/home/198592179,IMLS,98964650,N,Y,43.4918307,-116.4201223
MLS Listing,,Townhouse,3033 S Trailwood Way,Boise,ID,83716,650000,3,3.5,The BLVD at Harris Ranch,2352,1306,2021,126,276,198,Active,,,https://www.redfin.com/ID/Boise/3033-S-Trailwood-Way-83716/home/175912046,IMLS,98961451,N,Y,43.5742904,-116.136423
MLS Listing,,Single Family Residential,2008 Smith Ave,Nampa,ID,83651,650000,4,4.5,Nampa NW (51) - 1270,3196,28096,1963,70,203,,Active,,,https://www.redfin.com/ID/Nampa/2008-Smith-Ave-83651/home/117406260,IMLS,98966946,N,Y,43.58349,-116.6060173
